{
"type": "FeatureCollection",
"name": "transit_stops_clean",
"crs": { "type": "name", "properties": { "name": "urn:ogc:def:crs:OGC:1.3:CRS84" } },
"features": [
{ "type": "Feature", "properties": { "stop_id": "5648", "stop_code": "5648", "stop_name": "Vermont / 11th", "stop_desc": null, "stop_lat": 34.05064, "stop_lon": -118.291458, "stop_url": null, "location_type": null, "parent_station": null, "tpis_name": null, "source_feed": "bus" }, "geometry": { "type": "Point", "coordinates": [ -118.291458, 34.05064 ] } },
{ "type": "Feature", "properties": { "stop_id": "14031", "stop_code": "14031", "stop_name": "Vermont / 11th", "stop_desc": null, "stop_lat": 34.051054, "stop_lon": -118.29176, "stop_url": null, "location_type": null, "parent_station": null, "tpis_name": null, "source_feed": "bus" }, "geometry": { "type": "Point", "coordinates": [ -118.29176, 34.051054 ] } },
{ "type": "Feature", "properties": { "stop_id": "7888", "stop_code": "7888", "stop_name": "Vermont / Olympic", "stop_desc": null, "stop_lat": 34.052269, "stop_lon": -118.291757, "stop_url": null, "location_type": null, "parent_station": null, "tpis_name": null, "source_feed": "bus" }, "geometry": { "type": "Point", "coordinates": [ -118.291757, 34.052269 ] } },
{ "type": "Feature", "properties": { "stop_id": "7851", "stop_code": "7851", "stop_name": "Olympic / Elden", "stop_desc": null, "stop_lat": 34.052297, "stop_lon": -118.287875, "stop_url": null, "location_type": null, "parent_station": null, "tpis_name": null, "source_feed": "bus" }, "geometry": { "type": "Point", "coordinates": [ -118.287875, 34.052297 ] } },
{ "type": "Feature", "properties": { "stop_id": "5695", "stop_code": "5695", "stop_name": "Vermont / Olympic", "stop_desc": null, "stop_lat": 34.052324, "stop_lon": -118.29145, "stop_url": null, "location_type": null, "parent_station": null, "tpis_name": null, "source_feed": "bus" }, "geometry": { "type": "Point", "coordinates": [ -118.29145, 34.052324 ] } },
{ "type": "Feature", "properties": { "stop_id": "4159", "stop_code": "4159", "stop_name": "Olympic / Vermont", "stop_desc": null, "stop_lat": 34.052366, "stop_lon": -118.291408, "stop_url": null, "location_type": null, "parent_station": null, "tpis_name": null, "source_feed": "bus" }, "geometry": { "type": "Point", "coordinates": [ -118.291408, 34.052366 ] } },
{ "type": "Feature", "properties": { "stop_id": "16135", "stop_code": "16135", "stop_name": "Olympic / Elden", "stop_desc": null, "stop_lat": 34.052551, "stop_lon": -118.287546, "stop_url": null, "location_type": null, "parent_station": null, "tpis_name": null, "source_feed": "bus" }, "geometry": { "type": "Point", "coordinates": [ -118.287546, 34.052551 ] } },
{ "type": "Feature", "properties": { "stop_id": "16179", "stop_code": "16179", "stop_name": "Olympic / Vermont", "stop_desc": null, "stop_lat": 34.052629, "stop_lon": -118.291409, "stop_url": null, "location_type": null, "parent_station": null, "tpis_name": null, "source_feed": "bus" }, "geometry": { "type": "Point", "coordinates": [ -118.291409, 34.052629 ] } },
{ "type": "Feature", "properties": { "stop_id": "17137", "stop_code": "17137", "stop_name": "Hoover / Olympic", "stop_desc": null, "stop_lat": 34.052215, "stop_lon": -118.284306, "stop_url": null, "location_type": null, "parent_station": null, "tpis_name": null, "source_feed": "bus" }, "geometry": { "type": "Point", "coordinates": [ -118.284306, 34.052215 ] } },
{ "type": "Feature", "properties": { "stop_id": "17111", "stop_code": "17111", "stop_name": "Hoover / Olympic", "stop_desc": null, "stop_lat": 34.052216, "stop_lon": -118.284068, "stop_url": null, "location_type": null, "parent_station": null, "tpis_name": null, "source_feed": "bus" }, "geometry": { "type": "Point", "coordinates": [ -118.284068, 34.052216 ] } },
{ "type": "Feature", "properties": { "stop_id": "7873", "stop_code": "7873", "stop_name": "Olympic / Hoover", "stop_desc": null, "stop_lat": 34.0523, "stop_lon": -118.284359, "stop_url": null, "location_type": null, "parent_station": null, "tpis_name": null, "source_feed": "bus" }, "geometry": { "type": "Point", "coordinates": [ -118.284359, 34.0523 ] } },
{ "type": "Feature", "properties": { "stop_id": "16158", "stop_code": "16158", "stop_name": "Olympic / Hoover", "stop_desc": null, "stop_lat": 34.052534, "stop_lon": -118.28401, "stop_url": null, "location_type": null, "parent_station": null, "tpis_name": null, "source_feed": "bus" }, "geometry": { "type": "Point", "coordinates": [ -118.28401, 34.052534 ] } },
{ "type": "Feature", "properties": { "stop_id": "17112", "stop_code": "17112", "stop_name": "Hoover / James M Wood", "stop_desc": null, "stop_lat": 34.055645, "stop_lon": -118.284096, "stop_url": null, "location_type": null, "parent_station": null, "tpis_name": null, "source_feed": "bus" }, "geometry": { "type": "Point", "coordinates": [ -118.284096, 34.055645 ] } },
{ "type": "Feature", "properties": { "stop_id": "17136", "stop_code": "17136", "stop_name": "Hoover / James M Wood", "stop_desc": null, "stop_lat": 34.056059, "stop_lon": -118.284336, "stop_url": null, "location_type": null, "parent_station": null, "tpis_name": null, "source_feed": "bus" }, "geometry": { "type": "Point", "coordinates": [ -118.284336, 34.056059 ] } },
{ "type": "Feature", "properties": { "stop_id": "14082", "stop_code": "14082", "stop_name": "Vermont / Olympic", "stop_desc": null, "stop_lat": 34.052763, "stop_lon": -118.291762, "stop_url": null, "location_type": null, "parent_station": null, "tpis_name": null, "source_feed": "bus" }, "geometry": { "type": "Point", "coordinates": [ -118.291762, 34.052763 ] } },
{ "type": "Feature", "properties": { "stop_id": "5685", "stop_code": "5685", "stop_name": "Vermont / James M Wood", "stop_desc": null, "stop_lat": 34.055776, "stop_lon": -118.291466, "stop_url": null, "location_type": null, "parent_station": null, "tpis_name": null, "source_feed": "bus" }, "geometry": { "type": "Point", "coordinates": [ -118.291466, 34.055776 ] } },
{ "type": "Feature", "properties": { "stop_id": "14071", "stop_code": "14071", "stop_name": "Vermont / James M Wood", "stop_desc": null, "stop_lat": 34.056096, "stop_lon": -118.291771, "stop_url": null, "location_type": null, "parent_station": null, "tpis_name": null, "source_feed": "bus" }, "geometry": { "type": "Point", "coordinates": [ -118.291771, 34.056096 ] } },
{ "type": "Feature", "properties": { "stop_id": "5679", "stop_code": "5679", "stop_name": "Vermont / 8th", "stop_desc": null, "stop_lat": 34.057625, "stop_lon": -118.291472, "stop_url": null, "location_type": null, "parent_station": null, "tpis_name": null, "source_feed": "bus" }, "geometry": { "type": "Point", "coordinates": [ -118.291472, 34.057625 ] } },
{ "type": "Feature", "properties": { "stop_id": "7434", "stop_code": "7434", "stop_name": "8th / Westmoreland", "stop_desc": null, "stop_lat": 34.057645, "stop_lon": -118.288824, "stop_url": null, "location_type": null, "parent_station": null, "tpis_name": null, "source_feed": "bus" }, "geometry": { "type": "Point", "coordinates": [ -118.288824, 34.057645 ] } },
{ "type": "Feature", "properties": { "stop_id": "7432", "stop_code": "7432", "stop_name": "8th / Vermont", "stop_desc": null, "stop_lat": 34.057662, "stop_lon": -118.291875, "stop_url": null, "location_type": null, "parent_station": null, "tpis_name": null, "source_feed": "bus" }, "geometry": { "type": "Point", "coordinates": [ -118.291875, 34.057662 ] } },
{ "type": "Feature", "properties": { "stop_id": "15799", "stop_code": "15799", "stop_name": "8th / Westmoreland", "stop_desc": null, "stop_lat": 34.057847, "stop_lon": -118.28932, "stop_url": null, "location_type": null, "parent_station": null, "tpis_name": null, "source_feed": "bus" }, "geometry": { "type": "Point", "coordinates": [ -118.28932, 34.057847 ] } },
{ "type": "Feature", "properties": { "stop_id": "14064", "stop_code": "14064", "stop_name": "Vermont / 8th", "stop_desc": null, "stop_lat": 34.057899, "stop_lon": -118.291783, "stop_url": null, "location_type": null, "parent_station": null, "tpis_name": null, "source_feed": "bus" }, "geometry": { "type": "Point", "coordinates": [ -118.291783, 34.057899 ] } },
{ "type": "Feature", "properties": { "stop_id": "14060", "stop_code": "14060", "stop_name": "Vermont / 7th", "stop_desc": null, "stop_lat": 34.059504, "stop_lon": -118.291782, "stop_url": null, "location_type": null, "parent_station": null, "tpis_name": null, "source_feed": "bus" }, "geometry": { "type": "Point", "coordinates": [ -118.291782, 34.059504 ] } },
{ "type": "Feature", "properties": { "stop_id": "5675", "stop_code": "5675", "stop_name": "Vermont / 7th", "stop_desc": null, "stop_lat": 34.060054, "stop_lon": -118.291474, "stop_url": null, "location_type": null, "parent_station": null, "tpis_name": null, "source_feed": "bus" }, "geometry": { "type": "Point", "coordinates": [ -118.291474, 34.060054 ] } },
{ "type": "Feature", "properties": { "stop_id": "7426", "stop_code": "7426", "stop_name": "8th / Hoover", "stop_desc": null, "stop_lat": 34.057432, "stop_lon": -118.283772, "stop_url": null, "location_type": null, "parent_station": null, "tpis_name": null, "source_feed": "bus" }, "geometry": { "type": "Point", "coordinates": [ -118.283772, 34.057432 ] } },
{ "type": "Feature", "properties": { "stop_id": "17113", "stop_code": "17113", "stop_name": "Hoover / 8th", "stop_desc": null, "stop_lat": 34.057475, "stop_lon": -118.284099, "stop_url": null, "location_type": null, "parent_station": null, "tpis_name": null, "source_feed": "bus" }, "geometry": { "type": "Point", "coordinates": [ -118.284099, 34.057475 ] } },
{ "type": "Feature", "properties": { "stop_id": "15789", "stop_code": "15789", "stop_name": "8th / Hoover", "stop_desc": null, "stop_lat": 34.057847, "stop_lon": -118.284784, "stop_url": null, "location_type": null, "parent_station": null, "tpis_name": null, "source_feed": "bus" }, "geometry": { "type": "Point", "coordinates": [ -118.284784, 34.057847 ] } },
{ "type": "Feature", "properties": { "stop_id": "17135", "stop_code": "17135", "stop_name": "Hoover / 8th", "stop_desc": null, "stop_lat": 34.057952, "stop_lon": -118.284316, "stop_url": null, "location_type": null, "parent_station": null, "tpis_name": null, "source_feed": "bus" }, "geometry": { "type": "Point", "coordinates": [ -118.284316, 34.057952 ] } },
{ "type": "Feature", "properties": { "stop_id": "8365", "stop_code": "8365", "stop_name": "Wilshire / Commonwealth", "stop_desc": null, "stop_lat": 34.061708, "stop_lon": -118.28587, "stop_url": null, "location_type": null, "parent_station": null, "tpis_name": null, "source_feed": "bus" }, "geometry": { "type": "Point", "coordinates": [ -118.28587, 34.061708 ] } },
{ "type": "Feature", "properties": { "stop_id": "16712", "stop_code": "16712", "stop_name": "Wilshire / Commonwealth", "stop_desc": null, "stop_lat": 34.061965, "stop_lon": -118.285013, "stop_url": null, "location_type": null, "parent_station": null, "tpis_name": null, "source_feed": "bus" }, "geometry": { "type": "Point", "coordinates": [ -118.285013, 34.061965 ] } },
{ "type": "Feature", "properties": { "stop_id": "7356", "stop_code": "7356", "stop_name": "6th / Lafayette Park", "stop_desc": null, "stop_lat": 34.063184, "stop_lon": -118.283267, "stop_url": null, "location_type": null, "parent_station": null, "tpis_name": null, "source_feed": "bus" }, "geometry": { "type": "Point", "coordinates": [ -118.283267, 34.063184 ] } },
{ "type": "Feature", "properties": { "stop_id": "15719", "stop_code": "15719", "stop_name": "6th / Lafayette Park", "stop_desc": null, "stop_lat": 34.063393, "stop_lon": -118.283228, "stop_url": null, "location_type": null, "parent_station": null, "tpis_name": null, "source_feed": "bus" }, "geometry": { "type": "Point", "coordinates": [ -118.283228, 34.063393 ] } },
{ "type": "Feature", "properties": { "stop_id": "7348", "stop_code": "7348", "stop_name": "6th / Commonwealth", "stop_desc": null, "stop_lat": 34.063626, "stop_lon": -118.285814, "stop_url": null, "location_type": null, "parent_station": null, "tpis_name": null, "source_feed": "bus" }, "geometry": { "type": "Point", "coordinates": [ -118.285814, 34.063626 ] } },
{ "type": "Feature", "properties": { "stop_id": "8464", "stop_code": "8464", "stop_name": "Wilshire / Vermont", "stop_desc": null, "stop_lat": 34.061681, "stop_lon": -118.291397, "stop_url": null, "location_type": null, "parent_station": null, "tpis_name": null, "source_feed": "bus" }, "geometry": { "type": "Point", "coordinates": [ -118.291397, 34.061681 ] } },
{ "type": "Feature", "properties": { "stop_id": "8453", "stop_code": "8453", "stop_name": "Wilshire / Vermont", "stop_desc": null, "stop_lat": 34.061681, "stop_lon": -118.291298, "stop_url": null, "location_type": null, "parent_station": null, "tpis_name": null, "source_feed": "bus" }, "geometry": { "type": "Point", "coordinates": [ -118.291298, 34.061681 ] } },
{ "type": "Feature", "properties": { "stop_id": "8456", "stop_code": "8456", "stop_name": "Wilshire / Westmoreland", "stop_desc": null, "stop_lat": 34.061692, "stop_lon": -118.289245, "stop_url": null, "location_type": null, "parent_station": null, "tpis_name": null, "source_feed": "bus" }, "geometry": { "type": "Point", "coordinates": [ -118.289245, 34.061692 ] } },
{ "type": "Feature", "properties": { "stop_id": "16769", "stop_code": "16769", "stop_name": "Wilshire / Vermont", "stop_desc": null, "stop_lat": 34.061934, "stop_lon": -118.291299, "stop_url": null, "location_type": null, "parent_station": null, "tpis_name": null, "source_feed": "bus" }, "geometry": { "type": "Point", "coordinates": [ -118.291299, 34.061934 ] } },
{ "type": "Feature", "properties": { "stop_id": "16758", "stop_code": "16758", "stop_name": "Wilshire / Westmoreland", "stop_desc": null, "stop_lat": 34.061945, "stop_lon": -118.288915, "stop_url": null, "location_type": null, "parent_station": null, "tpis_name": null, "source_feed": "bus" }, "geometry": { "type": "Point", "coordinates": [ -118.288915, 34.061945 ] } },
{ "type": "Feature", "properties": { "stop_id": "13000140", "stop_code": "13000140", "stop_name": "Vermont / Wilshire", "stop_desc": null, "stop_lat": 34.061969, "stop_lon": -118.291784, "stop_url": null, "location_type": null, "parent_station": null, "tpis_name": null, "source_feed": "bus" }, "geometry": { "type": "Point", "coordinates": [ -118.291784, 34.061969 ] } },
{ "type": "Feature", "properties": { "stop_id": "14089", "stop_code": "14089", "stop_name": "Vermont / Wilshire", "stop_desc": null, "stop_lat": 34.062078, "stop_lon": -118.291782, "stop_url": null, "location_type": null, "parent_station": null, "tpis_name": null, "source_feed": "bus" }, "geometry": { "type": "Point", "coordinates": [ -118.291782, 34.062078 ] } },
{ "type": "Feature", "properties": { "stop_id": "5702", "stop_code": "5702", "stop_name": "Vermont / Wilshire", "stop_desc": null, "stop_lat": 34.062079, "stop_lon": -118.291474, "stop_url": null, "location_type": null, "parent_station": null, "tpis_name": null, "source_feed": "bus" }, "geometry": { "type": "Point", "coordinates": [ -118.291474, 34.062079 ] } },
{ "type": "Feature", "properties": { "stop_id": "8473", "stop_code": "8473", "stop_name": "Wilshire / Vermont Station", "stop_desc": null, "stop_lat": 34.062257, "stop_lon": -118.289494, "stop_url": null, "location_type": null, "parent_station": null, "tpis_name": null, "source_feed": "bus" }, "geometry": { "type": "Point", "coordinates": [ -118.289494, 34.062257 ] } },
{ "type": "Feature", "properties": { "stop_id": "80209B", "stop_code": "80209B", "stop_name": "Wilshire / Vermont Station - Vermont Entrance", "stop_desc": null, "stop_lat": 34.06245, "stop_lon": -118.29092, "stop_url": null, "location_type": 2.0, "parent_station": "80209S", "tpis_name": null, "source_feed": "rail" }, "geometry": { "type": "Point", "coordinates": [ -118.29092, 34.06245 ] } },
{ "type": "Feature", "properties": { "stop_id": "80209A", "stop_code": "80209A", "stop_name": "Wilshire / Vermont Station - Shatto Entrance", "stop_desc": null, "stop_lat": 34.0625, "stop_lon": -118.29028, "stop_url": null, "location_type": 2.0, "parent_station": "80209S", "tpis_name": null, "source_feed": "rail" }, "geometry": { "type": "Point", "coordinates": [ -118.29028, 34.0625 ] } },
{ "type": "Feature", "properties": { "stop_id": "5583", "stop_code": "5583", "stop_name": "Wilshire / Vermont Station", "stop_desc": null, "stop_lat": 34.062566, "stop_lon": -118.290001, "stop_url": null, "location_type": null, "parent_station": null, "tpis_name": null, "source_feed": "bus" }, "geometry": { "type": "Point", "coordinates": [ -118.290001, 34.062566 ] } },
{ "type": "Feature", "properties": { "stop_id": "80209", "stop_code": "80209", "stop_name": "Wilshire / Vermont Station", "stop_desc": null, "stop_lat": 34.062701, "stop_lon": -118.290082, "stop_url": null, "location_type": 0.0, "parent_station": "80209S", "tpis_name": "Wilshire/Vermont", "source_feed": "rail" }, "geometry": { "type": "Point", "coordinates": [ -118.290082, 34.062701 ] } },
{ "type": "Feature", "properties": { "stop_id": "80209S", "stop_code": "80209S", "stop_name": "Wilshire / Vermont Station", "stop_desc": null, "stop_lat": 34.062701, "stop_lon": -118.290082, "stop_url": null, "location_type": 1.0, "parent_station": null, "tpis_name": null, "source_feed": "rail" }, "geometry": { "type": "Point", "coordinates": [ -118.290082, 34.062701 ] } },
{ "type": "Feature", "properties": { "stop_id": "7370", "stop_code": "7370", "stop_name": "6th / Vermont", "stop_desc": null, "stop_lat": 34.063588, "stop_lon": -118.291305, "stop_url": null, "location_type": null, "parent_station": null, "tpis_name": null, "source_feed": "bus" }, "geometry": { "type": "Point", "coordinates": [ -118.291305, 34.063588 ] } },
{ "type": "Feature", "properties": { "stop_id": "7366", "stop_code": "7366", "stop_name": "6th / Westmoreland", "stop_desc": null, "stop_lat": 34.063614, "stop_lon": -118.288587, "stop_url": null, "location_type": null, "parent_station": null, "tpis_name": null, "source_feed": "bus" }, "geometry": { "type": "Point", "coordinates": [ -118.288587, 34.063614 ] } },
{ "type": "Feature", "properties": { "stop_id": "7364", "stop_code": "7364", "stop_name": "6th / Virgil", "stop_desc": null, "stop_lat": 34.06362, "stop_lon": -118.287207, "stop_url": null, "location_type": null, "parent_station": null, "tpis_name": null, "source_feed": "bus" }, "geometry": { "type": "Point", "coordinates": [ -118.287207, 34.06362 ] } },
{ "type": "Feature", "properties": { "stop_id": "15729", "stop_code": "15729", "stop_name": "6th / Westmoreland", "stop_desc": null, "stop_lat": 34.063813, "stop_lon": -118.288258, "stop_url": null, "location_type": null, "parent_station": null, "tpis_name": null, "source_feed": "bus" }, "geometry": { "type": "Point", "coordinates": [ -118.288258, 34.063813 ] } },
{ "type": "Feature", "properties": { "stop_id": "140972", "stop_code": "140972", "stop_name": "Vermont / 6th", "stop_desc": null, "stop_lat": 34.063821, "stop_lon": -118.291788, "stop_url": null, "location_type": null, "parent_station": null, "tpis_name": null, "source_feed": "bus" }, "geometry": { "type": "Point", "coordinates": [ -118.291788, 34.063821 ] } },
{ "type": "Feature", "properties": { "stop_id": "5663", "stop_code": "5663", "stop_name": "Vermont / 4th", "stop_desc": null, "stop_lat": 34.06719, "stop_lon": -118.291489, "stop_url": null, "location_type": null, "parent_station": null, "tpis_name": null, "source_feed": "bus" }, "geometry": { "type": "Point", "coordinates": [ -118.291489, 34.06719 ] } },
{ "type": "Feature", "properties": { "stop_id": "15736", "stop_code": "15736", "stop_name": "6th / Virgil", "stop_desc": null, "stop_lat": 34.063819, "stop_lon": -118.286795, "stop_url": null, "location_type": null, "parent_station": null, "tpis_name": null, "source_feed": "bus" }, "geometry": { "type": "Point", "coordinates": [ -118.286795, 34.063819 ] } },
{ "type": "Feature", "properties": { "stop_id": "15712", "stop_code": "15712", "stop_name": "6th / Commonwealth", "stop_desc": null, "stop_lat": 34.063825, "stop_lon": -118.285485, "stop_url": null, "location_type": null, "parent_station": null, "tpis_name": null, "source_feed": "bus" }, "geometry": { "type": "Point", "coordinates": [ -118.285485, 34.063825 ] } },
{ "type": "Feature", "properties": { "stop_id": "7291", "stop_code": "7291", "stop_name": "3rd / Occidental", "stop_desc": null, "stop_lat": 34.067671, "stop_lon": -118.282328, "stop_url": null, "location_type": null, "parent_station": null, "tpis_name": null, "source_feed": "bus" }, "geometry": { "type": "Point", "coordinates": [ -118.282328, 34.067671 ] } },
{ "type": "Feature", "properties": { "stop_id": "15648", "stop_code": "15648", "stop_name": "3rd / Occidental", "stop_desc": null, "stop_lat": 34.067771, "stop_lon": -118.281892, "stop_url": null, "location_type": null, "parent_station": null, "tpis_name": null, "source_feed": "bus" }, "geometry": { "type": "Point", "coordinates": [ -118.281892, 34.067771 ] } },
{ "type": "Feature", "properties": { "stop_id": "7282", "stop_code": "7282", "stop_name": "3rd / Hoover", "stop_desc": null, "stop_lat": 34.068474, "stop_lon": -118.284563, "stop_url": null, "location_type": null, "parent_station": null, "tpis_name": null, "source_feed": "bus" }, "geometry": { "type": "Point", "coordinates": [ -118.284563, 34.068474 ] } },
{ "type": "Feature", "properties": { "stop_id": "2265", "stop_code": "2265", "stop_name": "3rd / Hoover", "stop_desc": null, "stop_lat": 34.06874, "stop_lon": -118.284524, "stop_url": null, "location_type": null, "parent_station": null, "tpis_name": null, "source_feed": "bus" }, "geometry": { "type": "Point", "coordinates": [ -118.284524, 34.06874 ] } },
{ "type": "Feature", "properties": { "stop_id": "15660", "stop_code": "15660", "stop_name": "3rd / Virgil", "stop_desc": null, "stop_lat": 34.069117, "stop_lon": -118.286599, "stop_url": null, "location_type": null, "parent_station": null, "tpis_name": null, "source_feed": "bus" }, "geometry": { "type": "Point", "coordinates": [ -118.286599, 34.069117 ] } },
{ "type": "Feature", "properties": { "stop_id": "9016", "stop_code": "9016", "stop_name": "Beverly / Reno", "stop_desc": null, "stop_lat": 34.071391, "stop_lon": -118.281482, "stop_url": null, "location_type": null, "parent_station": null, "tpis_name": null, "source_feed": "bus" }, "geometry": { "type": "Point", "coordinates": [ -118.281482, 34.071391 ] } },
{ "type": "Feature", "properties": { "stop_id": "14046", "stop_code": "14046", "stop_name": "Vermont / 4th", "stop_desc": null, "stop_lat": 34.067519, "stop_lon": -118.291797, "stop_url": null, "location_type": null, "parent_station": null, "tpis_name": null, "source_feed": "bus" }, "geometry": { "type": "Point", "coordinates": [ -118.291797, 34.067519 ] } },
{ "type": "Feature", "properties": { "stop_id": "14042", "stop_code": "14042", "stop_name": "Vermont / 3rd", "stop_desc": null, "stop_lat": 34.068783, "stop_lon": -118.291802, "stop_url": null, "location_type": null, "parent_station": null, "tpis_name": null, "source_feed": "bus" }, "geometry": { "type": "Point", "coordinates": [ -118.291802, 34.068783 ] } },
{ "type": "Feature", "properties": { "stop_id": "7302", "stop_code": "7302", "stop_name": "3rd / Virgil", "stop_desc": null, "stop_lat": 34.068861, "stop_lon": -118.286994, "stop_url": null, "location_type": null, "parent_station": null, "tpis_name": null, "source_feed": "bus" }, "geometry": { "type": "Point", "coordinates": [ -118.286994, 34.068861 ] } },
{ "type": "Feature", "properties": { "stop_id": "5659", "stop_code": "5659", "stop_name": "Vermont / 3rd", "stop_desc": null, "stop_lat": 34.068866, "stop_lon": -118.291495, "stop_url": null, "location_type": null, "parent_station": null, "tpis_name": null, "source_feed": "bus" }, "geometry": { "type": "Point", "coordinates": [ -118.291495, 34.068866 ] } },
{ "type": "Feature", "properties": { "stop_id": "15659", "stop_code": "15659", "stop_name": "3rd / Vermont", "stop_desc": null, "stop_lat": 34.06893, "stop_lon": -118.29132, "stop_url": null, "location_type": null, "parent_station": null, "tpis_name": null, "source_feed": "bus" }, "geometry": { "type": "Point", "coordinates": [ -118.29132, 34.06893 ] } },
{ "type": "Feature", "properties": { "stop_id": "7301", "stop_code": "7301", "stop_name": "3rd / Vermont", "stop_desc": null, "stop_lat": 34.069185, "stop_lon": -118.29142, "stop_url": null, "location_type": null, "parent_station": null, "tpis_name": null, "source_feed": "bus" }, "geometry": { "type": "Point", "coordinates": [ -118.29142, 34.069185 ] } },
{ "type": "Feature", "properties": { "stop_id": "140971", "stop_code": "140971", "stop_name": "Vermont / 3rd", "stop_desc": null, "stop_lat": 34.06925, "stop_lon": -118.291807, "stop_url": null, "location_type": null, "parent_station": null, "tpis_name": null, "source_feed": "bus" }, "geometry": { "type": "Point", "coordinates": [ -118.291807, 34.06925 ] } },
{ "type": "Feature", "properties": { "stop_id": "140947", "stop_code": "140947", "stop_name": "Vermont / 3rd", "stop_desc": null, "stop_lat": 34.069334, "stop_lon": -118.2915, "stop_url": null, "location_type": null, "parent_station": null, "tpis_name": null, "source_feed": "bus" }, "geometry": { "type": "Point", "coordinates": [ -118.2915, 34.069334 ] } },
{ "type": "Feature", "properties": { "stop_id": "15439", "stop_code": "15439", "stop_name": "Vermont / 1st", "stop_desc": null, "stop_lat": 34.072548, "stop_lon": -118.291818, "stop_url": null, "location_type": null, "parent_station": null, "tpis_name": null, "source_feed": "bus" }, "geometry": { "type": "Point", "coordinates": [ -118.291818, 34.072548 ] } },
{ "type": "Feature", "properties": { "stop_id": "5652", "stop_code": "5652", "stop_name": "Vermont / 1st", "stop_desc": null, "stop_lat": 34.072631, "stop_lon": -118.291515, "stop_url": null, "location_type": null, "parent_station": null, "tpis_name": null, "source_feed": "bus" }, "geometry": { "type": "Point", "coordinates": [ -118.291515, 34.072631 ] } },
{ "type": "Feature", "properties": { "stop_id": "9003", "stop_code": "9003", "stop_name": "Beverly / Hoover", "stop_desc": null, "stop_lat": 34.072809, "stop_lon": -118.284647, "stop_url": null, "location_type": null, "parent_station": null, "tpis_name": null, "source_feed": "bus" }, "geometry": { "type": "Point", "coordinates": [ -118.284647, 34.072809 ] } },
{ "type": "Feature", "properties": { "stop_id": "419", "stop_code": "419", "stop_name": "Beverly / Hoover", "stop_desc": null, "stop_lat": 34.072841, "stop_lon": -118.284152, "stop_url": null, "location_type": null, "parent_station": null, "tpis_name": null, "source_feed": "bus" }, "geometry": { "type": "Point", "coordinates": [ -118.284152, 34.072841 ] } },
{ "type": "Feature", "properties": { "stop_id": "8106", "stop_code": "8106", "stop_name": "Temple / Robinson", "stop_desc": null, "stop_lat": 34.075443, "stop_lon": -118.281852, "stop_url": null, "location_type": null, "parent_station": null, "tpis_name": null, "source_feed": "bus" }, "geometry": { "type": "Point", "coordinates": [ -118.281852, 34.075443 ] } },
{ "type": "Feature", "properties": { "stop_id": "16388", "stop_code": "16388", "stop_name": "Temple / Robinson", "stop_desc": null, "stop_lat": 34.075729, "stop_lon": -118.281853, "stop_url": null, "location_type": null, "parent_station": null, "tpis_name": null, "source_feed": "bus" }, "geometry": { "type": "Point", "coordinates": [ -118.281853, 34.075729 ] } },
{ "type": "Feature", "properties": { "stop_id": "24249", "stop_code": "24249", "stop_name": "Temple / Hoover", "stop_desc": null, "stop_lat": 34.076323, "stop_lon": -118.283787, "stop_url": null, "location_type": null, "parent_station": null, "tpis_name": null, "source_feed": "bus" }, "geometry": { "type": "Point", "coordinates": [ -118.283787, 34.076323 ] } },
{ "type": "Feature", "properties": { "stop_id": "16382", "stop_code": "16382", "stop_name": "Temple / Hoover", "stop_desc": null, "stop_lat": 34.076702, "stop_lon": -118.283957, "stop_url": null, "location_type": null, "parent_station": null, "tpis_name": null, "source_feed": "bus" }, "geometry": { "type": "Point", "coordinates": [ -118.283957, 34.076702 ] } },
{ "type": "Feature", "properties": { "stop_id": "11061", "stop_code": "11061", "stop_name": "Hoover / Plata", "stop_desc": null, "stop_lat": 34.078595, "stop_lon": -118.2843, "stop_url": null, "location_type": null, "parent_station": null, "tpis_name": null, "source_feed": "bus" }, "geometry": { "type": "Point", "coordinates": [ -118.2843, 34.078595 ] } },
{ "type": "Feature", "properties": { "stop_id": "8987", "stop_code": "8987", "stop_name": "Beverly / Council", "stop_desc": null, "stop_lat": 34.075019, "stop_lon": -118.287015, "stop_url": null, "location_type": null, "parent_station": null, "tpis_name": null, "source_feed": "bus" }, "geometry": { "type": "Point", "coordinates": [ -118.287015, 34.075019 ] } },
{ "type": "Feature", "properties": { "stop_id": "433", "stop_code": "433", "stop_name": "Beverly / Virgil", "stop_desc": null, "stop_lat": 34.075524, "stop_lon": -118.286964, "stop_url": null, "location_type": null, "parent_station": null, "tpis_name": null, "source_feed": "bus" }, "geometry": { "type": "Point", "coordinates": [ -118.286964, 34.075524 ] } },
{ "type": "Feature", "properties": { "stop_id": "141085", "stop_code": "141085", "stop_name": "Vermont / Beverly", "stop_desc": null, "stop_lat": 34.076121, "stop_lon": -118.291527, "stop_url": null, "location_type": null, "parent_station": null, "tpis_name": null, "source_feed": "bus" }, "geometry": { "type": "Point", "coordinates": [ -118.291527, 34.076121 ] } },
{ "type": "Feature", "properties": { "stop_id": "429", "stop_code": "429", "stop_name": "Beverly / Vermont", "stop_desc": null, "stop_lat": 34.076215, "stop_lon": -118.291352, "stop_url": null, "location_type": null, "parent_station": null, "tpis_name": null, "source_feed": "bus" }, "geometry": { "type": "Point", "coordinates": [ -118.291352, 34.076215 ] } },
{ "type": "Feature", "properties": { "stop_id": "422", "stop_code": "422", "stop_name": "Beverly / Madison", "stop_desc": null, "stop_lat": 34.076219, "stop_lon": -118.289572, "stop_url": null, "location_type": null, "parent_station": null, "tpis_name": null, "source_feed": "bus" }, "geometry": { "type": "Point", "coordinates": [ -118.289572, 34.076219 ] } },
{ "type": "Feature", "properties": { "stop_id": "9009", "stop_code": "9009", "stop_name": "Beverly / Madison", "stop_desc": null, "stop_lat": 34.076473, "stop_lon": -118.288985, "stop_url": null, "location_type": null, "parent_station": null, "tpis_name": null, "source_feed": "bus" }, "geometry": { "type": "Point", "coordinates": [ -118.288985, 34.076473 ] } },
{ "type": "Feature", "properties": { "stop_id": "12439", "stop_code": "12439", "stop_name": "Vermont / Beverly", "stop_desc": null, "stop_lat": 34.076477, "stop_lon": -118.291835, "stop_url": null, "location_type": null, "parent_station": null, "tpis_name": null, "source_feed": "bus" }, "geometry": { "type": "Point", "coordinates": [ -118.291835, 34.076477 ] } },
{ "type": "Feature", "properties": { "stop_id": "80208", "stop_code": "80208", "stop_name": "Vermont / Beverly Station", "stop_desc": null, "stop_lat": 34.076526, "stop_lon": -118.291686, "stop_url": null, "location_type": 0.0, "parent_station": "80208S", "tpis_name": "Vermont/Beverly", "source_feed": "rail" }, "geometry": { "type": "Point", "coordinates": [ -118.291686, 34.076526 ] } },
{ "type": "Feature", "properties": { "stop_id": "80208S", "stop_code": "80208S", "stop_name": "Vermont / Beverly Station", "stop_desc": null, "stop_lat": 34.076526, "stop_lon": -118.291686, "stop_url": null, "location_type": 1.0, "parent_station": null, "tpis_name": null, "source_feed": "rail" }, "geometry": { "type": "Point", "coordinates": [ -118.291686, 34.076526 ] } },
{ "type": "Feature", "properties": { "stop_id": "140960", "stop_code": "140960", "stop_name": "Vermont / Beverly", "stop_desc": null, "stop_lat": 34.076615, "stop_lon": -118.291839, "stop_url": null, "location_type": null, "parent_station": null, "tpis_name": null, "source_feed": "bus" }, "geometry": { "type": "Point", "coordinates": [ -118.291839, 34.076615 ] } },
{ "type": "Feature", "properties": { "stop_id": "3974", "stop_code": "3974", "stop_name": "Vermont / Rosewood", "stop_desc": null, "stop_lat": 34.078913, "stop_lon": -118.291543, "stop_url": null, "location_type": null, "parent_station": null, "tpis_name": null, "source_feed": "bus" }, "geometry": { "type": "Point", "coordinates": [ -118.291543, 34.078913 ] } },
{ "type": "Feature", "properties": { "stop_id": "12456", "stop_code": "12456", "stop_name": "Vermont / Rosewood", "stop_desc": null, "stop_lat": 34.079255, "stop_lon": -118.291848, "stop_url": null, "location_type": null, "parent_station": null, "tpis_name": null, "source_feed": "bus" }, "geometry": { "type": "Point", "coordinates": [ -118.291848, 34.079255 ] } },
{ "type": "Feature", "properties": { "stop_id": "2523", "stop_code": "2523", "stop_name": "Hoover / Plata", "stop_desc": null, "stop_lat": 34.078869, "stop_lon": -118.284539, "stop_url": null, "location_type": null, "parent_station": null, "tpis_name": null, "source_feed": "bus" }, "geometry": { "type": "Point", "coordinates": [ -118.284539, 34.078869 ] } },
{ "type": "Feature", "properties": { "stop_id": "5720", "stop_code": "5720", "stop_name": "Western / 11th", "stop_desc": null, "stop_lat": 34.050701, "stop_lon": -118.308889, "stop_url": null, "location_type": null, "parent_station": null, "tpis_name": null, "source_feed": "bus" }, "geometry": { "type": "Point", "coordinates": [ -118.308889, 34.050701 ] } },
{ "type": "Feature", "properties": { "stop_id": "14105", "stop_code": "14105", "stop_name": "Western / 11th", "stop_desc": null, "stop_lat": 34.050975, "stop_lon": -118.309193, "stop_url": null, "location_type": null, "parent_station": null, "tpis_name": null, "source_feed": "bus" }, "geometry": { "type": "Point", "coordinates": [ -118.309193, 34.050975 ] } },
{ "type": "Feature", "properties": { "stop_id": "7846", "stop_code": "7846", "stop_name": "Olympic / Wilton", "stop_desc": null, "stop_lat": 34.052442, "stop_lon": -118.314626, "stop_url": null, "location_type": null, "parent_station": null, "tpis_name": null, "source_feed": "bus" }, "geometry": { "type": "Point", "coordinates": [ -118.314626, 34.052442 ] } },
{ "type": "Feature", "properties": { "stop_id": "16182", "stop_code": "16182", "stop_name": "Olympic / Wilton", "stop_desc": null, "stop_lat": 34.052674, "stop_lon": -118.315257, "stop_url": null, "location_type": null, "parent_station": null, "tpis_name": null, "source_feed": "bus" }, "geometry": { "type": "Point", "coordinates": [ -118.315257, 34.052674 ] } },
{ "type": "Feature", "properties": { "stop_id": "869", "stop_code": "869", "stop_name": "Crenshaw / Country Club", "stop_desc": null, "stop_lat": 34.052896, "stop_lon": -118.323772, "stop_url": null, "location_type": null, "parent_station": null, "tpis_name": null, "source_feed": "bus" }, "geometry": { "type": "Point", "coordinates": [ -118.323772, 34.052896 ] } },
{ "type": "Feature", "properties": { "stop_id": "5315", "stop_code": "5315", "stop_name": "Normandie / 11th", "stop_desc": null, "stop_lat": 34.050677, "stop_lon": -118.299846, "stop_url": null, "location_type": null, "parent_station": null, "tpis_name": null, "source_feed": "bus" }, "geometry": { "type": "Point", "coordinates": [ -118.299846, 34.050677 ] } },
{ "type": "Feature", "properties": { "stop_id": "13743", "stop_code": "13743", "stop_name": "Normandie / 11th", "stop_desc": null, "stop_lat": 34.05102, "stop_lon": -118.300085, "stop_url": null, "location_type": null, "parent_station": null, "tpis_name": null, "source_feed": "bus" }, "geometry": { "type": "Point", "coordinates": [ -118.300085, 34.05102 ] } },
{ "type": "Feature", "properties": { "stop_id": "13784", "stop_code": "13784", "stop_name": "Normandie / Olympic", "stop_desc": null, "stop_lat": 34.052355, "stop_lon": -118.3001, "stop_url": null, "location_type": null, "parent_station": null, "tpis_name": null, "source_feed": "bus" }, "geometry": { "type": "Point", "coordinates": [ -118.3001, 34.052355 ] } },
{ "type": "Feature", "properties": { "stop_id": "4155", "stop_code": "4155", "stop_name": "Olympic / Normandie", "stop_desc": null, "stop_lat": 34.052505, "stop_lon": -118.299741, "stop_url": null, "location_type": null, "parent_station": null, "tpis_name": null, "source_feed": "bus" }, "geometry": { "type": "Point", "coordinates": [ -118.299741, 34.052505 ] } },
{ "type": "Feature", "properties": { "stop_id": "7860", "stop_code": "7860", "stop_name": "Olympic / Catalina", "stop_desc": null, "stop_lat": 34.05253, "stop_lon": -118.294904, "stop_url": null, "location_type": null, "parent_station": null, "tpis_name": null, "source_feed": "bus" }, "geometry": { "type": "Point", "coordinates": [ -118.294904, 34.05253 ] } },
{ "type": "Feature", "properties": { "stop_id": "4252", "stop_code": "4252", "stop_name": "Olympic / Normandie", "stop_desc": null, "stop_lat": 34.052762, "stop_lon": -118.300237, "stop_url": null, "location_type": null, "parent_station": null, "tpis_name": null, "source_feed": "bus" }, "geometry": { "type": "Point", "coordinates": [ -118.300237, 34.052762 ] } },
{ "type": "Feature", "properties": { "stop_id": "16144", "stop_code": "16144", "stop_name": "Olympic / Catalina", "stop_desc": null, "stop_lat": 34.052784, "stop_lon": -118.294575, "stop_url": null, "location_type": null, "parent_station": null, "tpis_name": null, "source_feed": "bus" }, "geometry": { "type": "Point", "coordinates": [ -118.294575, 34.052784 ] } },
{ "type": "Feature", "properties": { "stop_id": "5358", "stop_code": "5358", "stop_name": "Normandie / Olympic", "stop_desc": null, "stop_lat": 34.05293, "stop_lon": -118.29994, "stop_url": null, "location_type": null, "parent_station": null, "tpis_name": null, "source_feed": "bus" }, "geometry": { "type": "Point", "coordinates": [ -118.29994, 34.05293 ] } },
{ "type": "Feature", "properties": { "stop_id": "11185", "stop_code": "11185", "stop_name": "Irolo / San Marino", "stop_desc": null, "stop_lat": 34.054203, "stop_lon": -118.300896, "stop_url": null, "location_type": null, "parent_station": null, "tpis_name": null, "source_feed": "bus" }, "geometry": { "type": "Point", "coordinates": [ -118.300896, 34.054203 ] } },
{ "type": "Feature", "properties": { "stop_id": "7845", "stop_code": "7845", "stop_name": "Olympic / 4th", "stop_desc": null, "stop_lat": 34.053022, "stop_lon": -118.318808, "stop_url": null, "location_type": null, "parent_station": null, "tpis_name": null, "source_feed": "bus" }, "geometry": { "type": "Point", "coordinates": [ -118.318808, 34.053022 ] } },
{ "type": "Feature", "properties": { "stop_id": "16132", "stop_code": "16132", "stop_name": "Olympic / 4th", "stop_desc": null, "stop_lat": 34.053144, "stop_lon": -118.318382, "stop_url": null, "location_type": null, "parent_station": null, "tpis_name": null, "source_feed": "bus" }, "geometry": { "type": "Point", "coordinates": [ -118.318382, 34.053144 ] } },
{ "type": "Feature", "properties": { "stop_id": "9413", "stop_code": "9413", "stop_name": "Crenshaw / Country Club", "stop_desc": null, "stop_lat": 34.053247, "stop_lon": -118.323912, "stop_url": null, "location_type": null, "parent_station": null, "tpis_name": null, "source_feed": "bus" }, "geometry": { "type": "Point", "coordinates": [ -118.323912, 34.053247 ] } },
{ "type": "Feature", "properties": { "stop_id": "7880", "stop_code": "7880", "stop_name": "Olympic / Norton", "stop_desc": null, "stop_lat": 34.053791, "stop_lon": -118.32092, "stop_url": null, "location_type": null, "parent_station": null, "tpis_name": null, "source_feed": "bus" }, "geometry": { "type": "Point", "coordinates": [ -118.32092, 34.053791 ] } },
{ "type": "Feature", "properties": { "stop_id": "16166", "stop_code": "16166", "stop_name": "Olympic / Norton", "stop_desc": null, "stop_lat": 34.053913, "stop_lon": -118.320495, "stop_url": null, "location_type": null, "parent_station": null, "tpis_name": null, "source_feed": "bus" }, "geometry": { "type": "Point", "coordinates": [ -118.320495, 34.053913 ] } },
{ "type": "Feature", "properties": { "stop_id": "9463", "stop_code": "9463", "stop_name": "Crenshaw / Olympic", "stop_desc": null, "stop_lat": 34.054089, "stop_lon": -118.323477, "stop_url": null, "location_type": null, "parent_station": null, "tpis_name": null, "source_feed": "bus" }, "geometry": { "type": "Point", "coordinates": [ -118.323477, 34.054089 ] } },
{ "type": "Feature", "properties": { "stop_id": "4137", "stop_code": "4137", "stop_name": "Olympic / Crenshaw", "stop_desc": null, "stop_lat": 34.054367, "stop_lon": -118.322527, "stop_url": null, "location_type": null, "parent_station": null, "tpis_name": null, "source_feed": "bus" }, "geometry": { "type": "Point", "coordinates": [ -118.322527, 34.054367 ] } },
{ "type": "Feature", "properties": { "stop_id": "918", "stop_code": "918", "stop_name": "Crenshaw / Olympic", "stop_desc": null, "stop_lat": 34.054418, "stop_lon": -118.322936, "stop_url": null, "location_type": null, "parent_station": null, "tpis_name": null, "source_feed": "bus" }, "geometry": { "type": "Point", "coordinates": [ -118.322936, 34.054418 ] } },
{ "type": "Feature", "properties": { "stop_id": "4254", "stop_code": "4254", "stop_name": "Olympic / Crenshaw", "stop_desc": null, "stop_lat": 34.054883, "stop_lon": -118.323595, "stop_url": null, "location_type": null, "parent_station": null, "tpis_name": null, "source_feed": "bus" }, "geometry": { "type": "Point", "coordinates": [ -118.323595, 34.054883 ] } },
{ "type": "Feature", "properties": { "stop_id": "909", "stop_code": "909", "stop_name": "Crenshaw / 9th", "stop_desc": null, "stop_lat": 34.05619, "stop_lon": -118.321969, "stop_url": null, "location_type": null, "parent_station": null, "tpis_name": null, "source_feed": "bus" }, "geometry": { "type": "Point", "coordinates": [ -118.321969, 34.05619 ] } },
{ "type": "Feature", "properties": { "stop_id": "14152", "stop_code": "14152", "stop_name": "Western / Olympic", "stop_desc": null, "stop_lat": 34.052346, "stop_lon": -118.309205, "stop_url": null, "location_type": null, "parent_station": null, "tpis_name": null, "source_feed": "bus" }, "geometry": { "type": "Point", "coordinates": [ -118.309205, 34.052346 ] } },
{ "type": "Feature", "properties": { "stop_id": "7870", "stop_code": "7870", "stop_name": "Olympic / Harvard", "stop_desc": null, "stop_lat": 34.05249, "stop_lon": -118.304323, "stop_url": null, "location_type": null, "parent_station": null, "tpis_name": null, "source_feed": "bus" }, "geometry": { "type": "Point", "coordinates": [ -118.304323, 34.05249 ] } },
{ "type": "Feature", "properties": { "stop_id": "4154", "stop_code": "4154", "stop_name": "Olympic / Western", "stop_desc": null, "stop_lat": 34.052518, "stop_lon": -118.308803, "stop_url": null, "location_type": null, "parent_station": null, "tpis_name": null, "source_feed": "bus" }, "geometry": { "type": "Point", "coordinates": [ -118.308803, 34.052518 ] } },
{ "type": "Feature", "properties": { "stop_id": "16155", "stop_code": "16155", "stop_name": "Olympic / Harvard", "stop_desc": null, "stop_lat": 34.052744, "stop_lon": -118.303997, "stop_url": null, "location_type": null, "parent_station": null, "tpis_name": null, "source_feed": "bus" }, "geometry": { "type": "Point", "coordinates": [ -118.303997, 34.052744 ] } },
{ "type": "Feature", "properties": { "stop_id": "4253", "stop_code": "4253", "stop_name": "Olympic / Western", "stop_desc": null, "stop_lat": 34.052775, "stop_lon": -118.309299, "stop_url": null, "location_type": null, "parent_station": null, "tpis_name": null, "source_feed": "bus" }, "geometry": { "type": "Point", "coordinates": [ -118.309299, 34.052775 ] } },
{ "type": "Feature", "properties": { "stop_id": "65300081", "stop_code": "65300081", "stop_name": "Western / Olympic", "stop_desc": null, "stop_lat": 34.053059, "stop_lon": -118.308901, "stop_url": null, "location_type": null, "parent_station": null, "tpis_name": null, "source_feed": "bus" }, "geometry": { "type": "Point", "coordinates": [ -118.308901, 34.053059 ] } },
{ "type": "Feature", "properties": { "stop_id": "5755", "stop_code": "5755", "stop_name": "Western / 9th", "stop_desc": null, "stop_lat": 34.055732, "stop_lon": -118.308914, "stop_url": null, "location_type": null, "parent_station": null, "tpis_name": null, "source_feed": "bus" }, "geometry": { "type": "Point", "coordinates": [ -118.308914, 34.055732 ] } },
{ "type": "Feature", "properties": { "stop_id": "14137", "stop_code": "14137", "stop_name": "Western / 9th", "stop_desc": null, "stop_lat": 34.056006, "stop_lon": -118.309218, "stop_url": null, "location_type": null, "parent_station": null, "tpis_name": null, "source_feed": "bus" }, "geometry": { "type": "Point", "coordinates": [ -118.309218, 34.056006 ] } },
{ "type": "Feature", "properties": { "stop_id": "11186", "stop_code": "11186", "stop_name": "Irolo / James M Wood", "stop_desc": null, "stop_lat": 34.056046, "stop_lon": -118.300991, "stop_url": null, "location_type": null, "parent_station": null, "tpis_name": null, "source_feed": "bus" }, "geometry": { "type": "Point", "coordinates": [ -118.300991, 34.056046 ] } },
{ "type": "Feature", "properties": { "stop_id": "5751", "stop_code": "5751", "stop_name": "Western / 8th", "stop_desc": null, "stop_lat": 34.057521, "stop_lon": -118.308914, "stop_url": null, "location_type": null, "parent_station": null, "tpis_name": null, "source_feed": "bus" }, "geometry": { "type": "Point", "coordinates": [ -118.308914, 34.057521 ] } },
{ "type": "Feature", "properties": { "stop_id": "7429", "stop_code": "7429", "stop_name": "8th / Serrano", "stop_desc": null, "stop_lat": 34.057579, "stop_lon": -118.306732, "stop_url": null, "location_type": null, "parent_station": null, "tpis_name": null, "source_feed": "bus" }, "geometry": { "type": "Point", "coordinates": [ -118.306732, 34.057579 ] } },
{ "type": "Feature", "properties": { "stop_id": "7425", "stop_code": "7425", "stop_name": "8th / Harvard", "stop_desc": null, "stop_lat": 34.057599, "stop_lon": -118.304315, "stop_url": null, "location_type": null, "parent_station": null, "tpis_name": null, "source_feed": "bus" }, "geometry": { "type": "Point", "coordinates": [ -118.304315, 34.057599 ] } },
{ "type": "Feature", "properties": { "stop_id": "7420", "stop_code": "7420", "stop_name": "8th / Irolo", "stop_desc": null, "stop_lat": 34.057612, "stop_lon": -118.301047, "stop_url": null, "location_type": null, "parent_station": null, "tpis_name": null, "source_feed": "bus" }, "geometry": { "type": "Point", "coordinates": [ -118.301047, 34.057612 ] } },
{ "type": "Feature", "properties": { "stop_id": "28301", "stop_code": "28301", "stop_name": "8th / Western", "stop_desc": null, "stop_lat": 34.057763, "stop_lon": -118.308736, "stop_url": null, "location_type": null, "parent_station": null, "tpis_name": null, "source_feed": "bus" }, "geometry": { "type": "Point", "coordinates": [ -118.308736, 34.057763 ] } },
{ "type": "Feature", "properties": { "stop_id": "15793", "stop_code": "15793", "stop_name": "8th / Serrano", "stop_desc": null, "stop_lat": 34.057778, "stop_lon": -118.306402, "stop_url": null, "location_type": null, "parent_station": null, "tpis_name": null, "source_feed": "bus" }, "geometry": { "type": "Point", "coordinates": [ -118.306402, 34.057778 ] } },
{ "type": "Feature", "properties": { "stop_id": "7433", "stop_code": "7433", "stop_name": "8th / Western", "stop_desc": null, "stop_lat": 34.057794, "stop_lon": -118.308519, "stop_url": null, "location_type": null, "parent_station": null, "tpis_name": null, "source_feed": "bus" }, "geometry": { "type": "Point", "coordinates": [ -118.308519, 34.057794 ] } },
{ "type": "Feature", "properties": { "stop_id": "15787", "stop_code": "15787", "stop_name": "8th / Harvard", "stop_desc": null, "stop_lat": 34.057797, "stop_lon": -118.303986, "stop_url": null, "location_type": null, "parent_station": null, "tpis_name": null, "source_feed": "bus" }, "geometry": { "type": "Point", "coordinates": [ -118.303986, 34.057797 ] } },
{ "type": "Feature", "properties": { "stop_id": "11188", "stop_code": "11188", "stop_name": "Irolo / 8th", "stop_desc": null, "stop_lat": 34.057879, "stop_lon": -118.301001, "stop_url": null, "location_type": null, "parent_station": null, "tpis_name": null, "source_feed": "bus" }, "geometry": { "type": "Point", "coordinates": [ -118.301001, 34.057879 ] } },
{ "type": "Feature", "properties": { "stop_id": "14133", "stop_code": "14133", "stop_name": "Western / 8th", "stop_desc": null, "stop_lat": 34.058194, "stop_lon": -118.309217, "stop_url": null, "location_type": null, "parent_station": null, "tpis_name": null, "source_feed": "bus" }, "geometry": { "type": "Point", "coordinates": [ -118.309217, 34.058194 ] } },
{ "type": "Feature", "properties": { "stop_id": "15798", "stop_code": "15798", "stop_name": "Western / 8th", "stop_desc": null, "stop_lat": 34.058332, "stop_lon": -118.30891, "stop_url": null, "location_type": null, "parent_station": null, "tpis_name": null, "source_feed": "bus" }, "geometry": { "type": "Point", "coordinates": [ -118.30891, 34.058332 ] } },
{ "type": "Feature", "properties": { "stop_id": "2693", "stop_code": "2693", "stop_name": "Irolo / San Marino", "stop_desc": null, "stop_lat": 34.054769, "stop_lon": -118.300759, "stop_url": null, "location_type": null, "parent_station": null, "tpis_name": null, "source_feed": "bus" }, "geometry": { "type": "Point", "coordinates": [ -118.300759, 34.054769 ] } },
{ "type": "Feature", "properties": { "stop_id": "2694", "stop_code": "2694", "stop_name": "Irolo / James M Wood", "stop_desc": null, "stop_lat": 34.055772, "stop_lon": -118.300753, "stop_url": null, "location_type": null, "parent_station": null, "tpis_name": null, "source_feed": "bus" }, "geometry": { "type": "Point", "coordinates": [ -118.300753, 34.055772 ] } },
{ "type": "Feature", "properties": { "stop_id": "2696", "stop_code": "2696", "stop_name": "Irolo / 8th", "stop_desc": null, "stop_lat": 34.057522, "stop_lon": -118.300762, "stop_url": null, "location_type": null, "parent_station": null, "tpis_name": null, "source_feed": "bus" }, "geometry": { "type": "Point", "coordinates": [ -118.300762, 34.057522 ] } },
{ "type": "Feature", "properties": { "stop_id": "15790", "stop_code": "15790", "stop_name": "8th / Mariposa", "stop_desc": null, "stop_lat": 34.057627, "stop_lon": -118.298458, "stop_url": null, "location_type": null, "parent_station": null, "tpis_name": null, "source_feed": "bus" }, "geometry": { "type": "Point", "coordinates": [ -118.298458, 34.057627 ] } },
{ "type": "Feature", "properties": { "stop_id": "7423", "stop_code": "7423", "stop_name": "8th / Catalina", "stop_desc": null, "stop_lat": 34.057646, "stop_lon": -118.295147, "stop_url": null, "location_type": null, "parent_station": null, "tpis_name": null, "source_feed": "bus" }, "geometry": { "type": "Point", "coordinates": [ -118.295147, 34.057646 ] } },
{ "type": "Feature", "properties": { "stop_id": "15775", "stop_code": "15775", "stop_name": "8th / Irolo", "stop_desc": null, "stop_lat": 34.057817, "stop_lon": -118.300717, "stop_url": null, "location_type": null, "parent_station": null, "tpis_name": null, "source_feed": "bus" }, "geometry": { "type": "Point", "coordinates": [ -118.300717, 34.057817 ] } },
{ "type": "Feature", "properties": { "stop_id": "7427", "stop_code": "7427", "stop_name": "8th / Mariposa", "stop_desc": null, "stop_lat": 34.057827, "stop_lon": -118.298541, "stop_url": null, "location_type": null, "parent_station": null, "tpis_name": null, "source_feed": "bus" }, "geometry": { "type": "Point", "coordinates": [ -118.298541, 34.057827 ] } },
{ "type": "Feature", "properties": { "stop_id": "15781", "stop_code": "15781", "stop_name": "8th / Catalina", "stop_desc": null, "stop_lat": 34.057844, "stop_lon": -118.29523, "stop_url": null, "location_type": null, "parent_station": null, "tpis_name": null, "source_feed": "bus" }, "geometry": { "type": "Point", "coordinates": [ -118.29523, 34.057844 ] } },
{ "type": "Feature", "properties": { "stop_id": "15796", "stop_code": "15796", "stop_name": "8th / Vermont", "stop_desc": null, "stop_lat": 34.057863, "stop_lon": -118.291958, "stop_url": null, "location_type": null, "parent_station": null, "tpis_name": null, "source_feed": "bus" }, "geometry": { "type": "Point", "coordinates": [ -118.291958, 34.057863 ] } },
{ "type": "Feature", "properties": { "stop_id": "13781", "stop_code": "13781", "stop_name": "Normandie / Wilshire", "stop_desc": null, "stop_lat": 34.061243, "stop_lon": -118.30066, "stop_url": null, "location_type": null, "parent_station": null, "tpis_name": null, "source_feed": "bus" }, "geometry": { "type": "Point", "coordinates": [ -118.30066, 34.061243 ] } },
{ "type": "Feature", "properties": { "stop_id": "9454", "stop_code": "9454", "stop_name": "Crenshaw / 9th", "stop_desc": null, "stop_lat": 34.056541, "stop_lon": -118.322109, "stop_url": null, "location_type": null, "parent_station": null, "tpis_name": null, "source_feed": "bus" }, "geometry": { "type": "Point", "coordinates": [ -118.322109, 34.056541 ] } },
{ "type": "Feature", "properties": { "stop_id": "908", "stop_code": "908", "stop_name": "Crenshaw / 8th", "stop_desc": null, "stop_lat": 34.058956, "stop_lon": -118.320448, "stop_url": null, "location_type": null, "parent_station": null, "tpis_name": null, "source_feed": "bus" }, "geometry": { "type": "Point", "coordinates": [ -118.320448, 34.058956 ] } },
{ "type": "Feature", "properties": { "stop_id": "9453", "stop_code": "9453", "stop_name": "Crenshaw / 8th", "stop_desc": null, "stop_lat": 34.059307, "stop_lon": -118.320588, "stop_url": null, "location_type": null, "parent_station": null, "tpis_name": null, "source_feed": "bus" }, "geometry": { "type": "Point", "coordinates": [ -118.320588, 34.059307 ] } },
{ "type": "Feature", "properties": { "stop_id": "25400131", "stop_code": "25400131", "stop_name": "Crenshaw / Wilshire", "stop_desc": null, "stop_lat": 34.061313, "stop_lon": -118.31948, "stop_url": null, "location_type": null, "parent_station": null, "tpis_name": null, "source_feed": "bus" }, "geometry": { "type": "Point", "coordinates": [ -118.31948, 34.061313 ] } },
{ "type": "Feature", "properties": { "stop_id": "16751", "stop_code": "16751", "stop_name": "Wilshire / Saint Andrews", "stop_desc": null, "stop_lat": 34.06157, "stop_lon": -118.311765, "stop_url": null, "location_type": null, "parent_station": null, "tpis_name": null, "source_feed": "bus" }, "geometry": { "type": "Point", "coordinates": [ -118.311765, 34.06157 ] } },
{ "type": "Feature", "properties": { "stop_id": "8438", "stop_code": "8438", "stop_name": "Wilshire / Norton", "stop_desc": null, "stop_lat": 34.061578, "stop_lon": -118.316998, "stop_url": null, "location_type": null, "parent_station": null, "tpis_name": null, "source_feed": "bus" }, "geometry": { "type": "Point", "coordinates": [ -118.316998, 34.061578 ] } },
{ "type": "Feature", "properties": { "stop_id": "20144", "stop_code": "20144", "stop_name": "Wilshire / Wilton", "stop_desc": null, "stop_lat": 34.061584, "stop_lon": -118.314703, "stop_url": null, "location_type": null, "parent_station": null, "tpis_name": null, "source_feed": "bus" }, "geometry": { "type": "Point", "coordinates": [ -118.314703, 34.061584 ] } },
{ "type": "Feature", "properties": { "stop_id": "8393", "stop_code": "8393", "stop_name": "Wilshire / Crenshaw", "stop_desc": null, "stop_lat": 34.06159, "stop_lon": -118.318649, "stop_url": null, "location_type": null, "parent_station": null, "tpis_name": null, "source_feed": "bus" }, "geometry": { "type": "Point", "coordinates": [ -118.318649, 34.06159 ] } },
{ "type": "Feature", "properties": { "stop_id": "928", "stop_code": "928", "stop_name": "Wilshire / Crenshaw", "stop_desc": null, "stop_lat": 34.061618, "stop_lon": -118.31957, "stop_url": null, "location_type": null, "parent_station": null, "tpis_name": null, "source_feed": "bus" }, "geometry": { "type": "Point", "coordinates": [ -118.31957, 34.061618 ] } },
{ "type": "Feature", "properties": { "stop_id": "2162", "stop_code": "2162", "stop_name": "Wilshire / Plymouth", "stop_desc": null, "stop_lat": 34.061687, "stop_lon": -118.322522, "stop_url": null, "location_type": null, "parent_station": null, "tpis_name": null, "source_feed": "bus" }, "geometry": { "type": "Point", "coordinates": [ -118.322522, 34.061687 ] } },
{ "type": "Feature", "properties": { "stop_id": "5748", "stop_code": "5748", "stop_name": "Western / 7th", "stop_desc": null, "stop_lat": 34.05956, "stop_lon": -118.308915, "stop_url": null, "location_type": null, "parent_station": null, "tpis_name": null, "source_feed": "bus" }, "geometry": { "type": "Point", "coordinates": [ -118.308915, 34.05956 ] } },
{ "type": "Feature", "properties": { "stop_id": "14130", "stop_code": "14130", "stop_name": "Western / 7th", "stop_desc": null, "stop_lat": 34.059834, "stop_lon": -118.309219, "stop_url": null, "location_type": null, "parent_station": null, "tpis_name": null, "source_feed": "bus" }, "geometry": { "type": "Point", "coordinates": [ -118.309219, 34.059834 ] } },
{ "type": "Feature", "properties": { "stop_id": "139999", "stop_code": "139999", "stop_name": "Western / Wilshire", "stop_desc": null, "stop_lat": 34.0612, "stop_lon": -118.309234, "stop_url": null, "location_type": null, "parent_station": null, "tpis_name": null, "source_feed": "bus" }, "geometry": { "type": "Point", "coordinates": [ -118.309234, 34.0612 ] } },
{ "type": "Feature", "properties": { "stop_id": "80215B", "stop_code": "80215B", "stop_name": "Wilshire / Normandie Station - Main Entrance", "stop_desc": null, "stop_lat": 34.0614, "stop_lon": -118.30091, "stop_url": null, "location_type": 2.0, "parent_station": "80215S", "tpis_name": null, "source_feed": "rail" }, "geometry": { "type": "Point", "coordinates": [ -118.30091, 34.0614 ] } },
{ "type": "Feature", "properties": { "stop_id": "80215A", "stop_code": "80215A", "stop_name": "Wilshire / Normandie Station - Elevator", "stop_desc": null, "stop_lat": 34.06157, "stop_lon": -118.30098, "stop_url": null, "location_type": 2.0, "parent_station": "80215S", "tpis_name": null, "source_feed": "rail" }, "geometry": { "type": "Point", "coordinates": [ -118.30098, 34.06157 ] } },
{ "type": "Feature", "properties": { "stop_id": "1791", "stop_code": "1791", "stop_name": "Wilshire / Western", "stop_desc": null, "stop_lat": 34.061581, "stop_lon": -118.308579, "stop_url": null, "location_type": null, "parent_station": null, "tpis_name": null, "source_feed": "bus" }, "geometry": { "type": "Point", "coordinates": [ -118.308579, 34.061581 ] } },
{ "type": "Feature", "properties": { "stop_id": "8454", "stop_code": "8454", "stop_name": "Wilshire / Western", "stop_desc": null, "stop_lat": 34.061583, "stop_lon": -118.308843, "stop_url": null, "location_type": null, "parent_station": null, "tpis_name": null, "source_feed": "bus" }, "geometry": { "type": "Point", "coordinates": [ -118.308843, 34.061583 ] } },
{ "type": "Feature", "properties": { "stop_id": "8449", "stop_code": "8449", "stop_name": "Wilshire / Serrano", "stop_desc": null, "stop_lat": 34.061593, "stop_lon": -118.306753, "stop_url": null, "location_type": null, "parent_station": null, "tpis_name": null, "source_feed": "bus" }, "geometry": { "type": "Point", "coordinates": [ -118.306753, 34.061593 ] } },
{ "type": "Feature", "properties": { "stop_id": "8425", "stop_code": "8425", "stop_name": "Wilshire / Harvard", "stop_desc": null, "stop_lat": 34.061605, "stop_lon": -118.30433, "stop_url": null, "location_type": null, "parent_station": null, "tpis_name": null, "source_feed": "bus" }, "geometry": { "type": "Point", "coordinates": [ -118.30433, 34.061605 ] } },
{ "type": "Feature", "properties": { "stop_id": "8428", "stop_code": "8428", "stop_name": "Wilshire / Kingsley", "stop_desc": null, "stop_lat": 34.061612, "stop_lon": -118.302781, "stop_url": null, "location_type": null, "parent_station": null, "tpis_name": null, "source_feed": "bus" }, "geometry": { "type": "Point", "coordinates": [ -118.302781, 34.061612 ] } },
{ "type": "Feature", "properties": { "stop_id": "80216", "stop_code": "80216", "stop_name": "Wilshire / Western Station", "stop_desc": null, "stop_lat": 34.061689, "stop_lon": -118.308756, "stop_url": null, "location_type": 0.0, "parent_station": "80216S", "tpis_name": "Wilshire/Western", "source_feed": "rail" }, "geometry": { "type": "Point", "coordinates": [ -118.308756, 34.061689 ] } },
{ "type": "Feature", "properties": { "stop_id": "80216S", "stop_code": "80216S", "stop_name": "Wilshire / Western Station", "stop_desc": null, "stop_lat": 34.061689, "stop_lon": -118.308756, "stop_url": null, "location_type": 1.0, "parent_station": null, "tpis_name": null, "source_feed": "rail" }, "geometry": { "type": "Point", "coordinates": [ -118.308756, 34.061689 ] } },
{ "type": "Feature", "properties": { "stop_id": "80215S", "stop_code": "80215S", "stop_name": "Wilshire / Normandie Station", "stop_desc": null, "stop_lat": 34.061753, "stop_lon": -118.301458, "stop_url": null, "location_type": 1.0, "parent_station": null, "tpis_name": null, "source_feed": "rail" }, "geometry": { "type": "Point", "coordinates": [ -118.301458, 34.061753 ] } },
{ "type": "Feature", "properties": { "stop_id": "80215", "stop_code": "80215", "stop_name": "Wilshire / Normandie Station", "stop_desc": null, "stop_lat": 34.061753, "stop_lon": -118.301458, "stop_url": null, "location_type": 0.0, "parent_station": "80215S", "tpis_name": "Wilshire/Normandie", "source_feed": "rail" }, "geometry": { "type": "Point", "coordinates": [ -118.301458, 34.061753 ] } },
{ "type": "Feature", "properties": { "stop_id": "16774", "stop_code": "16774", "stop_name": "Wilshire / Western", "stop_desc": null, "stop_lat": 34.061834, "stop_lon": -118.309405, "stop_url": null, "location_type": null, "parent_station": null, "tpis_name": null, "source_feed": "bus" }, "geometry": { "type": "Point", "coordinates": [ -118.309405, 34.061834 ] } },
{ "type": "Feature", "properties": { "stop_id": "8467", "stop_code": "8467", "stop_name": "Wilshire / Western", "stop_desc": null, "stop_lat": 34.061836, "stop_lon": -118.308745, "stop_url": null, "location_type": null, "parent_station": null, "tpis_name": null, "source_feed": "bus" }, "geometry": { "type": "Point", "coordinates": [ -118.308745, 34.061836 ] } },
{ "type": "Feature", "properties": { "stop_id": "16750", "stop_code": "16750", "stop_name": "Wilshire / Serrano", "stop_desc": null, "stop_lat": 34.061847, "stop_lon": -118.306424, "stop_url": null, "location_type": null, "parent_station": null, "tpis_name": null, "source_feed": "bus" }, "geometry": { "type": "Point", "coordinates": [ -118.306424, 34.061847 ] } },
{ "type": "Feature", "properties": { "stop_id": "16724", "stop_code": "16724", "stop_name": "Wilshire / Harvard", "stop_desc": null, "stop_lat": 34.061859, "stop_lon": -118.303938, "stop_url": null, "location_type": null, "parent_station": null, "tpis_name": null, "source_feed": "bus" }, "geometry": { "type": "Point", "coordinates": [ -118.303938, 34.061859 ] } },
{ "type": "Feature", "properties": { "stop_id": "16728", "stop_code": "16728", "stop_name": "Wilshire / Kingsley", "stop_desc": null, "stop_lat": 34.061865, "stop_lon": -118.302699, "stop_url": null, "location_type": null, "parent_station": null, "tpis_name": null, "source_feed": "bus" }, "geometry": { "type": "Point", "coordinates": [ -118.302699, 34.061865 ] } },
{ "type": "Feature", "properties": { "stop_id": "80216A", "stop_code": "80216A", "stop_name": "Wilshire / Western Station - Elevator", "stop_desc": null, "stop_lat": 34.06191, "stop_lon": -118.30876, "stop_url": null, "location_type": 2.0, "parent_station": "80216S", "tpis_name": null, "source_feed": "rail" }, "geometry": { "type": "Point", "coordinates": [ -118.30876, 34.06191 ] } },
{ "type": "Feature", "properties": { "stop_id": "13790", "stop_code": "13790", "stop_name": "Normandie / Wilshire", "stop_desc": null, "stop_lat": 34.06145, "stop_lon": -118.300251, "stop_url": null, "location_type": null, "parent_station": null, "tpis_name": null, "source_feed": "bus" }, "geometry": { "type": "Point", "coordinates": [ -118.300251, 34.06145 ] } },
{ "type": "Feature", "properties": { "stop_id": "8437", "stop_code": "8437", "stop_name": "Wilshire / Normandie", "stop_desc": null, "stop_lat": 34.061626, "stop_lon": -118.300199, "stop_url": null, "location_type": null, "parent_station": null, "tpis_name": null, "source_feed": "bus" }, "geometry": { "type": "Point", "coordinates": [ -118.300199, 34.061626 ] } },
{ "type": "Feature", "properties": { "stop_id": "5364", "stop_code": "5364", "stop_name": "Wilshire / Normandie", "stop_desc": null, "stop_lat": 34.061626, "stop_lon": -118.300529, "stop_url": null, "location_type": null, "parent_station": null, "tpis_name": null, "source_feed": "bus" }, "geometry": { "type": "Point", "coordinates": [ -118.300529, 34.061626 ] } },
{ "type": "Feature", "properties": { "stop_id": "8364", "stop_code": "8364", "stop_name": "Wilshire / Alexandria", "stop_desc": null, "stop_lat": 34.06164, "stop_lon": -118.29807, "stop_url": null, "location_type": null, "parent_station": null, "tpis_name": null, "source_feed": "bus" }, "geometry": { "type": "Point", "coordinates": [ -118.29807, 34.06164 ] } },
{ "type": "Feature", "properties": { "stop_id": "8412", "stop_code": "8412", "stop_name": "Wilshire / Catalina", "stop_desc": null, "stop_lat": 34.061654, "stop_lon": -118.295564, "stop_url": null, "location_type": null, "parent_station": null, "tpis_name": null, "source_feed": "bus" }, "geometry": { "type": "Point", "coordinates": [ -118.295564, 34.061654 ] } },
{ "type": "Feature", "properties": { "stop_id": "16995", "stop_code": "16995", "stop_name": "Wilshire / Normandie", "stop_desc": null, "stop_lat": 34.061882, "stop_lon": -118.3002, "stop_url": null, "location_type": null, "parent_station": null, "tpis_name": null, "source_feed": "bus" }, "geometry": { "type": "Point", "coordinates": [ -118.3002, 34.061882 ] } },
{ "type": "Feature", "properties": { "stop_id": "16737", "stop_code": "16737", "stop_name": "Wilshire / Normandie", "stop_desc": null, "stop_lat": 34.061882, "stop_lon": -118.300035, "stop_url": null, "location_type": null, "parent_station": null, "tpis_name": null, "source_feed": "bus" }, "geometry": { "type": "Point", "coordinates": [ -118.300035, 34.061882 ] } },
{ "type": "Feature", "properties": { "stop_id": "16700", "stop_code": "16700", "stop_name": "Wilshire / Alexandria", "stop_desc": null, "stop_lat": 34.061894, "stop_lon": -118.297717, "stop_url": null, "location_type": null, "parent_station": null, "tpis_name": null, "source_feed": "bus" }, "geometry": { "type": "Point", "coordinates": [ -118.297717, 34.061894 ] } },
{ "type": "Feature", "properties": { "stop_id": "16710", "stop_code": "16710", "stop_name": "Wilshire / Catalina", "stop_desc": null, "stop_lat": 34.061908, "stop_lon": -118.295234, "stop_url": null, "location_type": null, "parent_station": null, "tpis_name": null, "source_feed": "bus" }, "geometry": { "type": "Point", "coordinates": [ -118.295234, 34.061908 ] } },
{ "type": "Feature", "properties": { "stop_id": "7358", "stop_code": "7358", "stop_name": "6th / Normandie", "stop_desc": null, "stop_lat": 34.063483, "stop_lon": -118.300526, "stop_url": null, "location_type": null, "parent_station": null, "tpis_name": null, "source_feed": "bus" }, "geometry": { "type": "Point", "coordinates": [ -118.300526, 34.063483 ] } },
{ "type": "Feature", "properties": { "stop_id": "7342", "stop_code": "7342", "stop_name": "6th / Alexandria", "stop_desc": null, "stop_lat": 34.063492, "stop_lon": -118.29808, "stop_url": null, "location_type": null, "parent_station": null, "tpis_name": null, "source_feed": "bus" }, "geometry": { "type": "Point", "coordinates": [ -118.29808, 34.063492 ] } },
{ "type": "Feature", "properties": { "stop_id": "7347", "stop_code": "7347", "stop_name": "6th / Catalina", "stop_desc": null, "stop_lat": 34.063504, "stop_lon": -118.295564, "stop_url": null, "location_type": null, "parent_station": null, "tpis_name": null, "source_feed": "bus" }, "geometry": { "type": "Point", "coordinates": [ -118.295564, 34.063504 ] } },
{ "type": "Feature", "properties": { "stop_id": "15720", "stop_code": "15720", "stop_name": "6th / Normandie", "stop_desc": null, "stop_lat": 34.063681, "stop_lon": -118.300609, "stop_url": null, "location_type": null, "parent_station": null, "tpis_name": null, "source_feed": "bus" }, "geometry": { "type": "Point", "coordinates": [ -118.300609, 34.063681 ] } },
{ "type": "Feature", "properties": { "stop_id": "15705", "stop_code": "15705", "stop_name": "6th / Alexandria", "stop_desc": null, "stop_lat": 34.063691, "stop_lon": -118.29775, "stop_url": null, "location_type": null, "parent_station": null, "tpis_name": null, "source_feed": "bus" }, "geometry": { "type": "Point", "coordinates": [ -118.29775, 34.063691 ] } },
{ "type": "Feature", "properties": { "stop_id": "15711", "stop_code": "15711", "stop_name": "6th / Catalina", "stop_desc": null, "stop_lat": 34.063705, "stop_lon": -118.295234, "stop_url": null, "location_type": null, "parent_station": null, "tpis_name": null, "source_feed": "bus" }, "geometry": { "type": "Point", "coordinates": [ -118.295234, 34.063705 ] } },
{ "type": "Feature", "properties": { "stop_id": "6143", "stop_code": "6143", "stop_name": "6th / Vermont", "stop_desc": null, "stop_lat": 34.06374, "stop_lon": -118.292089, "stop_url": null, "location_type": null, "parent_station": null, "tpis_name": null, "source_feed": "bus" }, "geometry": { "type": "Point", "coordinates": [ -118.292089, 34.06374 ] } },
{ "type": "Feature", "properties": { "stop_id": "13764", "stop_code": "13764", "stop_name": "Normandie / 6th", "stop_desc": null, "stop_lat": 34.063747, "stop_lon": -118.300481, "stop_url": null, "location_type": null, "parent_station": null, "tpis_name": null, "source_feed": "bus" }, "geometry": { "type": "Point", "coordinates": [ -118.300481, 34.063747 ] } },
{ "type": "Feature", "properties": { "stop_id": "5336", "stop_code": "5336", "stop_name": "Normandie / 6th", "stop_desc": null, "stop_lat": 34.063858, "stop_lon": -118.300244, "stop_url": null, "location_type": null, "parent_station": null, "tpis_name": null, "source_feed": "bus" }, "geometry": { "type": "Point", "coordinates": [ -118.300244, 34.063858 ] } },
{ "type": "Feature", "properties": { "stop_id": "5331", "stop_code": "5331", "stop_name": "Normandie / 5th", "stop_desc": null, "stop_lat": 34.065259, "stop_lon": -118.300239, "stop_url": null, "location_type": null, "parent_station": null, "tpis_name": null, "source_feed": "bus" }, "geometry": { "type": "Point", "coordinates": [ -118.300239, 34.065259 ] } },
{ "type": "Feature", "properties": { "stop_id": "13755", "stop_code": "13755", "stop_name": "Normandie / 4th", "stop_desc": null, "stop_lat": 34.066935, "stop_lon": -118.300476, "stop_url": null, "location_type": null, "parent_station": null, "tpis_name": null, "source_feed": "bus" }, "geometry": { "type": "Point", "coordinates": [ -118.300476, 34.066935 ] } },
{ "type": "Feature", "properties": { "stop_id": "65300067", "stop_code": "65300067", "stop_name": "Western / Wilshire", "stop_desc": null, "stop_lat": 34.061911, "stop_lon": -118.309227, "stop_url": null, "location_type": null, "parent_station": null, "tpis_name": null, "source_feed": "bus" }, "geometry": { "type": "Point", "coordinates": [ -118.309227, 34.061911 ] } },
{ "type": "Feature", "properties": { "stop_id": "5775", "stop_code": "5775", "stop_name": "Western / Wilshire", "stop_desc": null, "stop_lat": 34.062058, "stop_lon": -118.308924, "stop_url": null, "location_type": null, "parent_station": null, "tpis_name": null, "source_feed": "bus" }, "geometry": { "type": "Point", "coordinates": [ -118.308924, 34.062058 ] } },
{ "type": "Feature", "properties": { "stop_id": "80216B", "stop_code": "80216B", "stop_name": "Wilshire / Western Station - Main Entrance", "stop_desc": null, "stop_lat": 34.06216, "stop_lon": -118.30883, "stop_url": null, "location_type": 2.0, "parent_station": "80216S", "tpis_name": null, "source_feed": "rail" }, "geometry": { "type": "Point", "coordinates": [ -118.30883, 34.06216 ] } },
{ "type": "Feature", "properties": { "stop_id": "956", "stop_code": "956", "stop_name": "6th / Oxford Terminal", "stop_desc": null, "stop_lat": 34.063032, "stop_lon": -118.308442, "stop_url": null, "location_type": null, "parent_station": null, "tpis_name": null, "source_feed": "bus" }, "geometry": { "type": "Point", "coordinates": [ -118.308442, 34.063032 ] } },
{ "type": "Feature", "properties": { "stop_id": "7361", "stop_code": "7361", "stop_name": "6th / Serrano", "stop_desc": null, "stop_lat": 34.063448, "stop_lon": -118.306763, "stop_url": null, "location_type": null, "parent_station": null, "tpis_name": null, "source_feed": "bus" }, "geometry": { "type": "Point", "coordinates": [ -118.306763, 34.063448 ] } },
{ "type": "Feature", "properties": { "stop_id": "7353", "stop_code": "7353", "stop_name": "6th / Harvard", "stop_desc": null, "stop_lat": 34.063463, "stop_lon": -118.30426, "stop_url": null, "location_type": null, "parent_station": null, "tpis_name": null, "source_feed": "bus" }, "geometry": { "type": "Point", "coordinates": [ -118.30426, 34.063463 ] } },
{ "type": "Feature", "properties": { "stop_id": "15717", "stop_code": "15717", "stop_name": "6th / Harvard", "stop_desc": null, "stop_lat": 34.063662, "stop_lon": -118.303931, "stop_url": null, "location_type": null, "parent_station": null, "tpis_name": null, "source_feed": "bus" }, "geometry": { "type": "Point", "coordinates": [ -118.303931, 34.063662 ] } },
{ "type": "Feature", "properties": { "stop_id": "14122", "stop_code": "14122", "stop_name": "Western / 5th", "stop_desc": null, "stop_lat": 34.065495, "stop_lon": -118.309244, "stop_url": null, "location_type": null, "parent_station": null, "tpis_name": null, "source_feed": "bus" }, "geometry": { "type": "Point", "coordinates": [ -118.309244, 34.065495 ] } },
{ "type": "Feature", "properties": { "stop_id": "5739", "stop_code": "5739", "stop_name": "Western / 5th", "stop_desc": null, "stop_lat": 34.065633, "stop_lon": -118.30894, "stop_url": null, "location_type": null, "parent_station": null, "tpis_name": null, "source_feed": "bus" }, "geometry": { "type": "Point", "coordinates": [ -118.30894, 34.065633 ] } },
{ "type": "Feature", "properties": { "stop_id": "5729", "stop_code": "5729", "stop_name": "Western / 3rd", "stop_desc": null, "stop_lat": 34.068631, "stop_lon": -118.308951, "stop_url": null, "location_type": null, "parent_station": null, "tpis_name": null, "source_feed": "bus" }, "geometry": { "type": "Point", "coordinates": [ -118.308951, 34.068631 ] } },
{ "type": "Feature", "properties": { "stop_id": "7849", "stop_code": "7849", "stop_name": "Olympic / Lucerne", "stop_desc": null, "stop_lat": 34.055103, "stop_lon": -118.327713, "stop_url": null, "location_type": null, "parent_station": null, "tpis_name": null, "source_feed": "bus" }, "geometry": { "type": "Point", "coordinates": [ -118.327713, 34.055103 ] } },
{ "type": "Feature", "properties": { "stop_id": "16163", "stop_code": "16163", "stop_name": "Olympic / Lucerne", "stop_desc": null, "stop_lat": 34.055361, "stop_lon": -118.327724, "stop_url": null, "location_type": null, "parent_station": null, "tpis_name": null, "source_feed": "bus" }, "geometry": { "type": "Point", "coordinates": [ -118.327724, 34.055361 ] } },
{ "type": "Feature", "properties": { "stop_id": "8435", "stop_code": "8435", "stop_name": "Wilshire / Lucerne", "stop_desc": null, "stop_lat": 34.061731, "stop_lon": -118.324437, "stop_url": null, "location_type": null, "parent_station": null, "tpis_name": null, "source_feed": "bus" }, "geometry": { "type": "Point", "coordinates": [ -118.324437, 34.061731 ] } },
{ "type": "Feature", "properties": { "stop_id": "16738", "stop_code": "16738", "stop_name": "Wilshire / Norton", "stop_desc": null, "stop_lat": 34.061832, "stop_lon": -118.316424, "stop_url": null, "location_type": null, "parent_station": null, "tpis_name": null, "source_feed": "bus" }, "geometry": { "type": "Point", "coordinates": [ -118.316424, 34.061832 ] } },
{ "type": "Feature", "properties": { "stop_id": "2445", "stop_code": "2445", "stop_name": "Wilshire / Wilton", "stop_desc": null, "stop_lat": 34.061837, "stop_lon": -118.314533, "stop_url": null, "location_type": null, "parent_station": null, "tpis_name": null, "source_feed": "bus" }, "geometry": { "type": "Point", "coordinates": [ -118.314533, 34.061837 ] } },
{ "type": "Feature", "properties": { "stop_id": "8450", "stop_code": "8450", "stop_name": "Wilshire / Saint Andrews", "stop_desc": null, "stop_lat": 34.061841, "stop_lon": -118.311, "stop_url": null, "location_type": null, "parent_station": null, "tpis_name": null, "source_feed": "bus" }, "geometry": { "type": "Point", "coordinates": [ -118.311, 34.061841 ] } },
{ "type": "Feature", "properties": { "stop_id": "16691", "stop_code": "16691", "stop_name": "Wilshire / Crenshaw", "stop_desc": null, "stop_lat": 34.061879, "stop_lon": -118.319614, "stop_url": null, "location_type": null, "parent_station": null, "tpis_name": null, "source_feed": "bus" }, "geometry": { "type": "Point", "coordinates": [ -118.319614, 34.061879 ] } },
{ "type": "Feature", "properties": { "stop_id": "8400", "stop_code": "8400", "stop_name": "Wilshire / Crenshaw", "stop_desc": null, "stop_lat": 34.061894, "stop_lon": -118.320317, "stop_url": null, "location_type": null, "parent_station": null, "tpis_name": null, "source_feed": "bus" }, "geometry": { "type": "Point", "coordinates": [ -118.320317, 34.061894 ] } },
{ "type": "Feature", "properties": { "stop_id": "43422", "stop_code": "43422", "stop_name": "Wilshire / Plymouth", "stop_desc": null, "stop_lat": 34.061945, "stop_lon": -118.322682, "stop_url": null, "location_type": null, "parent_station": null, "tpis_name": null, "source_feed": "bus" }, "geometry": { "type": "Point", "coordinates": [ -118.322682, 34.061945 ] } },
{ "type": "Feature", "properties": { "stop_id": "16734", "stop_code": "16734", "stop_name": "Wilshire / Lucerne", "stop_desc": null, "stop_lat": 34.061977, "stop_lon": -118.324101, "stop_url": null, "location_type": null, "parent_station": null, "tpis_name": null, "source_feed": "bus" }, "geometry": { "type": "Point", "coordinates": [ -118.324101, 34.061977 ] } },
{ "type": "Feature", "properties": { "stop_id": "13000137", "stop_code": "13000137", "stop_name": "6th / Private Right-Of-Way", "stop_desc": null, "stop_lat": 34.064022, "stop_lon": -118.313359, "stop_url": null, "location_type": null, "parent_station": null, "tpis_name": null, "source_feed": "bus" }, "geometry": { "type": "Point", "coordinates": [ -118.313359, 34.064022 ] } },
{ "type": "Feature", "properties": { "stop_id": "5327", "stop_code": "5327", "stop_name": "Normandie / 4th", "stop_desc": null, "stop_lat": 34.067485, "stop_lon": -118.30024, "stop_url": null, "location_type": null, "parent_station": null, "tpis_name": null, "source_feed": "bus" }, "geometry": { "type": "Point", "coordinates": [ -118.30024, 34.067485 ] } },
{ "type": "Feature", "properties": { "stop_id": "7289", "stop_code": "7289", "stop_name": "3rd / Normandie", "stop_desc": null, "stop_lat": 34.068906, "stop_lon": -118.300027, "stop_url": null, "location_type": null, "parent_station": null, "tpis_name": null, "source_feed": "bus" }, "geometry": { "type": "Point", "coordinates": [ -118.300027, 34.068906 ] } },
{ "type": "Feature", "properties": { "stop_id": "7269", "stop_code": "7269", "stop_name": "3rd / Alexandria", "stop_desc": null, "stop_lat": 34.068919, "stop_lon": -118.298099, "stop_url": null, "location_type": null, "parent_station": null, "tpis_name": null, "source_feed": "bus" }, "geometry": { "type": "Point", "coordinates": [ -118.298099, 34.068919 ] } },
{ "type": "Feature", "properties": { "stop_id": "7275", "stop_code": "7275", "stop_name": "3rd / Catalina", "stop_desc": null, "stop_lat": 34.068922, "stop_lon": -118.29558, "stop_url": null, "location_type": null, "parent_station": null, "tpis_name": null, "source_feed": "bus" }, "geometry": { "type": "Point", "coordinates": [ -118.29558, 34.068922 ] } },
{ "type": "Feature", "properties": { "stop_id": "15646", "stop_code": "15646", "stop_name": "3rd / Normandie", "stop_desc": null, "stop_lat": 34.069156, "stop_lon": -118.30016, "stop_url": null, "location_type": null, "parent_station": null, "tpis_name": null, "source_feed": "bus" }, "geometry": { "type": "Point", "coordinates": [ -118.30016, 34.069156 ] } },
{ "type": "Feature", "properties": { "stop_id": "15625", "stop_code": "15625", "stop_name": "3rd / Alexandria", "stop_desc": null, "stop_lat": 34.069173, "stop_lon": -118.297717, "stop_url": null, "location_type": null, "parent_station": null, "tpis_name": null, "source_feed": "bus" }, "geometry": { "type": "Point", "coordinates": [ -118.297717, 34.069173 ] } },
{ "type": "Feature", "properties": { "stop_id": "15632", "stop_code": "15632", "stop_name": "3rd / Catalina", "stop_desc": null, "stop_lat": 34.069176, "stop_lon": -118.29525, "stop_url": null, "location_type": null, "parent_station": null, "tpis_name": null, "source_feed": "bus" }, "geometry": { "type": "Point", "coordinates": [ -118.29525, 34.069176 ] } },
{ "type": "Feature", "properties": { "stop_id": "13752", "stop_code": "13752", "stop_name": "Normandie / 3rd", "stop_desc": null, "stop_lat": 34.069193, "stop_lon": -118.300477, "stop_url": null, "location_type": null, "parent_station": null, "tpis_name": null, "source_feed": "bus" }, "geometry": { "type": "Point", "coordinates": [ -118.300477, 34.069193 ] } },
{ "type": "Feature", "properties": { "stop_id": "5324", "stop_code": "5324", "stop_name": "Normandie / 3rd", "stop_desc": null, "stop_lat": 34.069304, "stop_lon": -118.30024, "stop_url": null, "location_type": null, "parent_station": null, "tpis_name": null, "source_feed": "bus" }, "geometry": { "type": "Point", "coordinates": [ -118.30024, 34.069304 ] } },
{ "type": "Feature", "properties": { "stop_id": "12546", "stop_code": "12546", "stop_name": "Normandie / 1st", "stop_desc": null, "stop_lat": 34.072911, "stop_lon": -118.300497, "stop_url": null, "location_type": null, "parent_station": null, "tpis_name": null, "source_feed": "bus" }, "geometry": { "type": "Point", "coordinates": [ -118.300497, 34.072911 ] } },
{ "type": "Feature", "properties": { "stop_id": "7303", "stop_code": "7303", "stop_name": "3rd / Western", "stop_desc": null, "stop_lat": 34.068855, "stop_lon": -118.309339, "stop_url": null, "location_type": null, "parent_station": null, "tpis_name": null, "source_feed": "bus" }, "geometry": { "type": "Point", "coordinates": [ -118.309339, 34.068855 ] } },
{ "type": "Feature", "properties": { "stop_id": "7281", "stop_code": "7281", "stop_name": "3rd / Hobart", "stop_desc": null, "stop_lat": 34.06887, "stop_lon": -118.305634, "stop_url": null, "location_type": null, "parent_station": null, "tpis_name": null, "source_feed": "bus" }, "geometry": { "type": "Point", "coordinates": [ -118.305634, 34.06887 ] } },
{ "type": "Feature", "properties": { "stop_id": "7284", "stop_code": "7284", "stop_name": "3rd / Kingsley", "stop_desc": null, "stop_lat": 34.068885, "stop_lon": -118.303019, "stop_url": null, "location_type": null, "parent_station": null, "tpis_name": null, "source_feed": "bus" }, "geometry": { "type": "Point", "coordinates": [ -118.303019, 34.068885 ] } },
{ "type": "Feature", "properties": { "stop_id": "15662", "stop_code": "15662", "stop_name": "3rd / Western", "stop_desc": null, "stop_lat": 34.069109, "stop_lon": -118.308877, "stop_url": null, "location_type": null, "parent_station": null, "tpis_name": null, "source_feed": "bus" }, "geometry": { "type": "Point", "coordinates": [ -118.308877, 34.069109 ] } },
{ "type": "Feature", "properties": { "stop_id": "14113", "stop_code": "14113", "stop_name": "Western / 3rd", "stop_desc": null, "stop_lat": 34.069119, "stop_lon": -118.30926, "stop_url": null, "location_type": null, "parent_station": null, "tpis_name": null, "source_feed": "bus" }, "geometry": { "type": "Point", "coordinates": [ -118.30926, 34.069119 ] } },
{ "type": "Feature", "properties": { "stop_id": "15638", "stop_code": "15638", "stop_name": "3rd / Hobart", "stop_desc": null, "stop_lat": 34.069124, "stop_lon": -118.305205, "stop_url": null, "location_type": null, "parent_station": null, "tpis_name": null, "source_feed": "bus" }, "geometry": { "type": "Point", "coordinates": [ -118.305205, 34.069124 ] } },
{ "type": "Feature", "properties": { "stop_id": "15640", "stop_code": "15640", "stop_name": "3rd / Kingsley", "stop_desc": null, "stop_lat": 34.069137, "stop_lon": -118.303185, "stop_url": null, "location_type": null, "parent_station": null, "tpis_name": null, "source_feed": "bus" }, "geometry": { "type": "Point", "coordinates": [ -118.303185, 34.069137 ] } },
{ "type": "Feature", "properties": { "stop_id": "5724", "stop_code": "5724", "stop_name": "Western / 2nd", "stop_desc": null, "stop_lat": 34.071021, "stop_lon": -118.308964, "stop_url": null, "location_type": null, "parent_station": null, "tpis_name": null, "source_feed": "bus" }, "geometry": { "type": "Point", "coordinates": [ -118.308964, 34.071021 ] } },
{ "type": "Feature", "properties": { "stop_id": "14108", "stop_code": "14108", "stop_name": "Western / 2nd", "stop_desc": null, "stop_lat": 34.071295, "stop_lon": -118.309268, "stop_url": null, "location_type": null, "parent_station": null, "tpis_name": null, "source_feed": "bus" }, "geometry": { "type": "Point", "coordinates": [ -118.309268, 34.071295 ] } },
{ "type": "Feature", "properties": { "stop_id": "5721", "stop_code": "5721", "stop_name": "Western / 1st", "stop_desc": null, "stop_lat": 34.073574, "stop_lon": -118.308973, "stop_url": null, "location_type": null, "parent_station": null, "tpis_name": null, "source_feed": "bus" }, "geometry": { "type": "Point", "coordinates": [ -118.308973, 34.073574 ] } },
{ "type": "Feature", "properties": { "stop_id": "7290", "stop_code": "7290", "stop_name": "3rd / Norton", "stop_desc": null, "stop_lat": 34.068839, "stop_lon": -118.317481, "stop_url": null, "location_type": null, "parent_station": null, "tpis_name": null, "source_feed": "bus" }, "geometry": { "type": "Point", "coordinates": [ -118.317481, 34.068839 ] } },
{ "type": "Feature", "properties": { "stop_id": "7304", "stop_code": "7304", "stop_name": "3rd / Wilton", "stop_desc": null, "stop_lat": 34.068846, "stop_lon": -118.313796, "stop_url": null, "location_type": null, "parent_station": null, "tpis_name": null, "source_feed": "bus" }, "geometry": { "type": "Point", "coordinates": [ -118.313796, 34.068846 ] } },
{ "type": "Feature", "properties": { "stop_id": "7298", "stop_code": "7298", "stop_name": "3rd / Saint Andrews", "stop_desc": null, "stop_lat": 34.068852, "stop_lon": -118.311756, "stop_url": null, "location_type": null, "parent_station": null, "tpis_name": null, "source_feed": "bus" }, "geometry": { "type": "Point", "coordinates": [ -118.311756, 34.068852 ] } },
{ "type": "Feature", "properties": { "stop_id": "15647", "stop_code": "15647", "stop_name": "3rd / Norton", "stop_desc": null, "stop_lat": 34.069094, "stop_lon": -118.316941, "stop_url": null, "location_type": null, "parent_station": null, "tpis_name": null, "source_feed": "bus" }, "geometry": { "type": "Point", "coordinates": [ -118.316941, 34.069094 ] } },
{ "type": "Feature", "properties": { "stop_id": "15663", "stop_code": "15663", "stop_name": "3rd / Wilton", "stop_desc": null, "stop_lat": 34.069097, "stop_lon": -118.314527, "stop_url": null, "location_type": null, "parent_station": null, "tpis_name": null, "source_feed": "bus" }, "geometry": { "type": "Point", "coordinates": [ -118.314527, 34.069097 ] } },
{ "type": "Feature", "properties": { "stop_id": "15655", "stop_code": "15655", "stop_name": "3rd / Saint Andrews", "stop_desc": null, "stop_lat": 34.069105, "stop_lon": -118.311426, "stop_url": null, "location_type": null, "parent_station": null, "tpis_name": null, "source_feed": "bus" }, "geometry": { "type": "Point", "coordinates": [ -118.311426, 34.069105 ] } },
{ "type": "Feature", "properties": { "stop_id": "140920", "stop_code": "140920", "stop_name": "Manhattan / Beverly Layover", "stop_desc": null, "stop_lat": 34.075805, "stop_lon": -118.31016, "stop_url": null, "location_type": null, "parent_station": null, "tpis_name": null, "source_feed": "bus" }, "geometry": { "type": "Point", "coordinates": [ -118.31016, 34.075805 ] } },
{ "type": "Feature", "properties": { "stop_id": "4056", "stop_code": "4056", "stop_name": "Normandie / 1st", "stop_desc": null, "stop_lat": 34.073049, "stop_lon": -118.30026, "stop_url": null, "location_type": null, "parent_station": null, "tpis_name": null, "source_feed": "bus" }, "geometry": { "type": "Point", "coordinates": [ -118.30026, 34.073049 ] } },
{ "type": "Feature", "properties": { "stop_id": "3807", "stop_code": "3807", "stop_name": "Normandie / Beverly", "stop_desc": null, "stop_lat": 34.076075, "stop_lon": -118.300274, "stop_url": null, "location_type": null, "parent_station": null, "tpis_name": null, "source_feed": "bus" }, "geometry": { "type": "Point", "coordinates": [ -118.300274, 34.076075 ] } },
{ "type": "Feature", "properties": { "stop_id": "9013", "stop_code": "9013", "stop_name": "Beverly / Normandie", "stop_desc": null, "stop_lat": 34.076167, "stop_lon": -118.300559, "stop_url": null, "location_type": null, "parent_station": null, "tpis_name": null, "source_feed": "bus" }, "geometry": { "type": "Point", "coordinates": [ -118.300559, 34.076167 ] } },
{ "type": "Feature", "properties": { "stop_id": "9005", "stop_code": "9005", "stop_name": "Beverly / Kenmore", "stop_desc": null, "stop_lat": 34.076188, "stop_lon": -118.296718, "stop_url": null, "location_type": null, "parent_station": null, "tpis_name": null, "source_feed": "bus" }, "geometry": { "type": "Point", "coordinates": [ -118.296718, 34.076188 ] } },
{ "type": "Feature", "properties": { "stop_id": "425", "stop_code": "425", "stop_name": "Beverly / Normandie", "stop_desc": null, "stop_lat": 34.076421, "stop_lon": -118.300229, "stop_url": null, "location_type": null, "parent_station": null, "tpis_name": null, "source_feed": "bus" }, "geometry": { "type": "Point", "coordinates": [ -118.300229, 34.076421 ] } },
{ "type": "Feature", "properties": { "stop_id": "420", "stop_code": "420", "stop_name": "Beverly / Kenmore", "stop_desc": null, "stop_lat": 34.076441, "stop_lon": -118.296389, "stop_url": null, "location_type": null, "parent_station": null, "tpis_name": null, "source_feed": "bus" }, "geometry": { "type": "Point", "coordinates": [ -118.296389, 34.076441 ] } },
{ "type": "Feature", "properties": { "stop_id": "432", "stop_code": "432", "stop_name": "Beverly / Vermont", "stop_desc": null, "stop_lat": 34.076466, "stop_lon": -118.291997, "stop_url": null, "location_type": null, "parent_station": null, "tpis_name": null, "source_feed": "bus" }, "geometry": { "type": "Point", "coordinates": [ -118.291997, 34.076466 ] } },
{ "type": "Feature", "properties": { "stop_id": "12292", "stop_code": "12292", "stop_name": "Normandie / Beverly", "stop_desc": null, "stop_lat": 34.076514, "stop_lon": -118.300514, "stop_url": null, "location_type": null, "parent_station": null, "tpis_name": null, "source_feed": "bus" }, "geometry": { "type": "Point", "coordinates": [ -118.300514, 34.076514 ] } },
{ "type": "Feature", "properties": { "stop_id": "80208A", "stop_code": "80208A", "stop_name": "Vermont / Beverly Station - Beverly Entrance", "stop_desc": null, "stop_lat": 34.0766, "stop_lon": -118.29191, "stop_url": null, "location_type": 2.0, "parent_station": "80208S", "tpis_name": null, "source_feed": "rail" }, "geometry": { "type": "Point", "coordinates": [ -118.29191, 34.0766 ] } },
{ "type": "Feature", "properties": { "stop_id": "3813", "stop_code": "3813", "stop_name": "Normandie / Rosewood", "stop_desc": null, "stop_lat": 34.078891, "stop_lon": -118.300304, "stop_url": null, "location_type": null, "parent_station": null, "tpis_name": null, "source_feed": "bus" }, "geometry": { "type": "Point", "coordinates": [ -118.300304, 34.078891 ] } },
{ "type": "Feature", "properties": { "stop_id": "12475", "stop_code": "12475", "stop_name": "Western / 1st", "stop_desc": null, "stop_lat": 34.073829, "stop_lon": -118.309278, "stop_url": null, "location_type": null, "parent_station": null, "tpis_name": null, "source_feed": "bus" }, "geometry": { "type": "Point", "coordinates": [ -118.309278, 34.073829 ] } },
{ "type": "Feature", "properties": { "stop_id": "12460", "stop_code": "12460", "stop_name": "Western / Beverly", "stop_desc": null, "stop_lat": 34.075794, "stop_lon": -118.309292, "stop_url": null, "location_type": null, "parent_station": null, "tpis_name": null, "source_feed": "bus" }, "geometry": { "type": "Point", "coordinates": [ -118.309292, 34.075794 ] } },
{ "type": "Feature", "properties": { "stop_id": "65300065", "stop_code": "65300065", "stop_name": "Western / Beverly", "stop_desc": null, "stop_lat": 34.076041, "stop_lon": -118.309289, "stop_url": null, "location_type": null, "parent_station": null, "tpis_name": null, "source_feed": "bus" }, "geometry": { "type": "Point", "coordinates": [ -118.309289, 34.076041 ] } },
{ "type": "Feature", "properties": { "stop_id": "3985", "stop_code": "3985", "stop_name": "Western / Beverly", "stop_desc": null, "stop_lat": 34.076055, "stop_lon": -118.308982, "stop_url": null, "location_type": null, "parent_station": null, "tpis_name": null, "source_feed": "bus" }, "geometry": { "type": "Point", "coordinates": [ -118.308982, 34.076055 ] } },
{ "type": "Feature", "properties": { "stop_id": "442", "stop_code": "442", "stop_name": "Beverly / Western", "stop_desc": null, "stop_lat": 34.076134, "stop_lon": -118.309385, "stop_url": null, "location_type": null, "parent_station": null, "tpis_name": null, "source_feed": "bus" }, "geometry": { "type": "Point", "coordinates": [ -118.309385, 34.076134 ] } },
{ "type": "Feature", "properties": { "stop_id": "8990", "stop_code": "8990", "stop_name": "Beverly / Hobart", "stop_desc": null, "stop_lat": 34.076142, "stop_lon": -118.306209, "stop_url": null, "location_type": null, "parent_station": null, "tpis_name": null, "source_feed": "bus" }, "geometry": { "type": "Point", "coordinates": [ -118.306209, 34.076142 ] } },
{ "type": "Feature", "properties": { "stop_id": "434", "stop_code": "434", "stop_name": "Beverly / Western", "stop_desc": null, "stop_lat": 34.076391, "stop_lon": -118.308891, "stop_url": null, "location_type": null, "parent_station": null, "tpis_name": null, "source_feed": "bus" }, "geometry": { "type": "Point", "coordinates": [ -118.308891, 34.076391 ] } },
{ "type": "Feature", "properties": { "stop_id": "404", "stop_code": "404", "stop_name": "Beverly / Hobart", "stop_desc": null, "stop_lat": 34.076396, "stop_lon": -118.305879, "stop_url": null, "location_type": null, "parent_station": null, "tpis_name": null, "source_feed": "bus" }, "geometry": { "type": "Point", "coordinates": [ -118.305879, 34.076396 ] } },
{ "type": "Feature", "properties": { "stop_id": "12461", "stop_code": "12461", "stop_name": "Western / Elmwood", "stop_desc": null, "stop_lat": 34.078437, "stop_lon": -118.309301, "stop_url": null, "location_type": null, "parent_station": null, "tpis_name": null, "source_feed": "bus" }, "geometry": { "type": "Point", "coordinates": [ -118.309301, 34.078437 ] } },
{ "type": "Feature", "properties": { "stop_id": "3986", "stop_code": "3986", "stop_name": "Western / Elmwood", "stop_desc": null, "stop_lat": 34.078438, "stop_lon": -118.308998, "stop_url": null, "location_type": null, "parent_station": null, "tpis_name": null, "source_feed": "bus" }, "geometry": { "type": "Point", "coordinates": [ -118.308998, 34.078438 ] } },
{ "type": "Feature", "properties": { "stop_id": "9021", "stop_code": "9021", "stop_name": "Beverly / Van Ness", "stop_desc": null, "stop_lat": 34.076123, "stop_lon": -118.315874, "stop_url": null, "location_type": null, "parent_station": null, "tpis_name": null, "source_feed": "bus" }, "geometry": { "type": "Point", "coordinates": [ -118.315874, 34.076123 ] } },
{ "type": "Feature", "properties": { "stop_id": "9025", "stop_code": "9025", "stop_name": "Beverly / Wilton", "stop_desc": null, "stop_lat": 34.076126, "stop_lon": -118.313744, "stop_url": null, "location_type": null, "parent_station": null, "tpis_name": null, "source_feed": "bus" }, "geometry": { "type": "Point", "coordinates": [ -118.313744, 34.076126 ] } },
{ "type": "Feature", "properties": { "stop_id": "140894", "stop_code": "140894", "stop_name": "Beverly / Van Ness", "stop_desc": null, "stop_lat": 34.076376, "stop_lon": -118.315545, "stop_url": null, "location_type": null, "parent_station": null, "tpis_name": null, "source_feed": "bus" }, "geometry": { "type": "Point", "coordinates": [ -118.315545, 34.076376 ] } },
{ "type": "Feature", "properties": { "stop_id": "140893", "stop_code": "140893", "stop_name": "Beverly / Wilton Pl", "stop_desc": null, "stop_lat": 34.076379, "stop_lon": -118.313326, "stop_url": null, "location_type": null, "parent_station": null, "tpis_name": null, "source_feed": "bus" }, "geometry": { "type": "Point", "coordinates": [ -118.313326, 34.076379 ] } },
{ "type": "Feature", "properties": { "stop_id": "12298", "stop_code": "12298", "stop_name": "Normandie / Rosewood", "stop_desc": null, "stop_lat": 34.079165, "stop_lon": -118.300543, "stop_url": null, "location_type": null, "parent_station": null, "tpis_name": null, "source_feed": "bus" }, "geometry": { "type": "Point", "coordinates": [ -118.300543, 34.079165 ] } },
{ "type": "Feature", "properties": { "stop_id": "3810", "stop_code": "3810", "stop_name": "Normandie / Maplewood", "stop_desc": null, "stop_lat": 34.080545, "stop_lon": -118.30032, "stop_url": null, "location_type": null, "parent_station": null, "tpis_name": null, "source_feed": "bus" }, "geometry": { "type": "Point", "coordinates": [ -118.30032, 34.080545 ] } },
{ "type": "Feature", "properties": { "stop_id": "12293", "stop_code": "12293", "stop_name": "Normandie / Clinton", "stop_desc": null, "stop_lat": 34.080627, "stop_lon": -118.300558, "stop_url": null, "location_type": null, "parent_station": null, "tpis_name": null, "source_feed": "bus" }, "geometry": { "type": "Point", "coordinates": [ -118.300558, 34.080627 ] } },
{ "type": "Feature", "properties": { "stop_id": "3990", "stop_code": "3990", "stop_name": "Western / Maplewood", "stop_desc": null, "stop_lat": 34.079757, "stop_lon": -118.308993, "stop_url": null, "location_type": null, "parent_station": null, "tpis_name": null, "source_feed": "bus" }, "geometry": { "type": "Point", "coordinates": [ -118.308993, 34.079757 ] } },
{ "type": "Feature", "properties": { "stop_id": "12469", "stop_code": "12469", "stop_name": "Western / Maplewood", "stop_desc": null, "stop_lat": 34.080462, "stop_lon": -118.309299, "stop_url": null, "location_type": null, "parent_station": null, "tpis_name": null, "source_feed": "bus" }, "geometry": { "type": "Point", "coordinates": [ -118.309299, 34.080462 ] } }
]
}
